Provinsi,Kabupaten/Kota,Kecamatan,Name with Street,Original Name,Street Detail,Full Address Info,Latitude,Longitude
DKI Jakarta,Kota Administrasi Jakarta Selatan,Cilandak,"ATM BNI KK KARANG TENGAH - Jl. Karang Tengah Raya No.21 6, RT.6/RW.3",ATM BNI KK KARANG TENGAH,"Jl. Karang Tengah Raya No.21 6, RT.6/RW.3","5,0 (2) ATM ATM · Jl. Karang Tengah Raya No.21 6, RT.6/RW.3 Buka 24 jam Buka 24 jam Buka 24 jam · (021) 57899999",-6.3154979,106.7824653
DKI Jakarta,Kota Administrasi Jakarta Selatan,Cilandak,"BNI - Jalan Karang Tengah, RT.1/RW.3, Lebak Bulus, Cilandak, RT.13/RW.3",BNI,"Jalan Karang Tengah, RT.1/RW.3, Lebak Bulus, Cilandak, RT.13/RW.3","5,0 (1) ATM ATM · Jalan Karang Tengah, RT.1/RW.3, Lebak Bulus, Cilandak, RT.13/RW.3 Buka 24 jam Buka 24 jam Buka 24 jam · (021) 57899999",-6.3090742,106.7809041
DKI Jakarta,Kota Administrasi Jakarta Selatan,Cilandak,"ATM BNI - Jl. Karang Tengah Raya No.4 4, RT.4/RW.3",ATM BNI,"Jl. Karang Tengah Raya No.4 4, RT.4/RW.3","1,0 (1) ATM ATM · Alfa Midi, Jl. Karang Tengah Raya No.4 4, RT.4/RW.3",-6.3109504,106.7812898
DKI Jakarta,Kota Administrasi Jakarta Selatan,Cilandak,"BNI - Jl. Lebak Bulus Raya No.Z-24, RT.4/RW.5",BNI,"Jl. Lebak Bulus Raya No.Z-24, RT.4/RW.5","2,0 (1) ATM ATM · Jl. Lebak Bulus Raya No.Z-24, RT.4/RW.5 Buka ⋅ Tutup pukul 23.00 · (021) 500046",-6.2999412,106.7777803
DKI Jakarta,Kota Administrasi Jakarta Selatan,Cilandak,"ATM BNI KLN PANGLIMA POLIM-NON TUNAI - Jl. Fatmawati No.47, RT.6/RW.1",ATM BNI KLN PANGLIMA POLIM-NON TUNAI,"Jl. Fatmawati No.47, RT.6/RW.1","5,0 (2) Bank Bank · Jl. Fatmawati No.47, RT.6/RW.1 (021) 57899999 (021) 57899999",-6.314773,106.793451
DKI Jakarta,Kota Administrasi Jakarta Selatan,Cilandak,"ATM Bank BNI - Jl. Pangkalan Jati, RT.2/RW.5",ATM Bank BNI,"Jl. Pangkalan Jati, RT.2/RW.5","1,0 (2) ATM ATM · MQPW+QJJ, Jl. Pangkalan Jati, RT.2/RW.5",-6.3130457,106.796515
DKI Jakarta,Kota Administrasi Jakarta Selatan,Cilandak,"ATM BNI INDOMARET LEBAK BULUS - Jalan Batan I, Pasar Jumat, RT.5/RW.4",ATM BNI INDOMARET LEBAK BULUS,"Jalan Batan I, Pasar Jumat, RT.5/RW.4","5,0 (1) Bank Bank · Jalan Batan I, Pasar Jumat, RT.5/RW.4 (021) 57899999 (021) 57899999",-6.303112,106.779493
DKI Jakarta,Kota Administrasi Jakarta Selatan,Cilandak,"ATM BNI KLN UPN VETERAN PONDOK LABU - Jl. RS. Fatmawati Raya Jl. Komsai No.Kel, RT.6/RW.10",ATM BNI KLN UPN VETERAN PONDOK LABU,"Jl. RS. Fatmawati Raya Jl. Komsai No.Kel, RT.6/RW.10","5,0 (1) Bank Bank · Jl. RS. Fatmawati Raya Jl. Komsai No.Kel, RT.6/RW.10 (021) 57899999 (021) 57899999",-6.3083964,106.7935765
DKI Jakarta,Kota Administrasi Jakarta Selatan,Cilandak,"ATM BNI CILANDAK TOWN SQUARE 3 - Jalan Tb. Simatupang Kav 17, RT.2/RW.1",ATM BNI CILANDAK TOWN SQUARE 3,"Jalan Tb. Simatupang Kav 17, RT.2/RW.1","Tidak ada ulasan ATM ATM · Jalan Tb. Simatupang Kav 17, RT.2/RW.1 Buka 24 jam Buka 24 jam Buka 24 jam · (021) 57899999",-6.2917954,106.7992851
DKI Jakarta,Kota Administrasi Jakarta Selatan,Cilandak,"ATM BNI - Jl. RS. Fatmawati Raya No.15, RT.2/RW.1",ATM BNI,"Jl. RS. Fatmawati Raya No.15, RT.2/RW.1","Tidak ada ulasan ATM ATM · Jl. RS. Fatmawati Raya No.15, RT.2/RW.1 (021) 500046 (021) 500046",-6.3094864,106.7939252
DKI Jakarta,Kota Administrasi Jakarta Selatan,Cilandak,"ATM BNI SPBU FATMAWATI - Jl. T.B. Simatupang, Cilandak, RT.1/RW.4",ATM BNI SPBU FATMAWATI,"Jl. T.B. Simatupang, Cilandak, RT.1/RW.4","5,0 (1) ATM ATM · Jl. T.B. Simatupang, Cilandak, RT.1/RW.4 (021) 1500046 (021) 1500046",-6.2949381,106.7946758
DKI Jakarta,Kota Administrasi Jakarta Selatan,Cilandak,"ATM BNI - Jl. TB Simatupang, RT.1/RW.4",ATM BNI,"Jl. TB Simatupang, RT.1/RW.4","Tidak ada ulasan ATM ATM · Jl. TB Simatupang, RT.1/RW.4 Buka ⋅ Tutup pukul 21.00 · (021) 57899999",-6.2928132,106.793155
DKI Jakarta,Kota Administrasi Jakarta Selatan,Cilandak,"ATM BNI RS. SILOAM TB SIMATUPANG - Jl. Tol Tahi Bonar Simatupang, RT.10/RW.4",ATM BNI RS. SILOAM TB SIMATUPANG,"Jl. Tol Tahi Bonar Simatupang, RT.10/RW.4","5,0 (1) Bank Bank · Jl. Tol Tahi Bonar Simatupang, RT.10/RW.4 Buka 24 jam Buka 24 jam Buka 24 jam · (021) 57899999",-6.2922126,106.7843731
DKI Jakarta,Kota Administrasi Jakarta Selatan,Cilandak,"ATM BNI CILANDAK TOWN SQUARE 2 - Jl. TB Simatupang No.Kel 2, RT.2/RW.1",ATM BNI CILANDAK TOWN SQUARE 2,"Jl. TB Simatupang No.Kel 2, RT.2/RW.1","4,7 (3) Bank Bank · Jl. TB Simatupang No.Kel 2, RT.2/RW.1 (021) 57899999 (021) 57899999",-6.2918178,106.8006952
DKI Jakarta,Kota Administrasi Jakarta Selatan,Cilandak,"ATM BNI - Jl. Batan Jl. Grafika No.1 3, RT.1/RW.2",ATM BNI,"Jl. Batan Jl. Grafika No.1 3, RT.1/RW.2","4,0 (1) ATM ATM · Indomaret, Jl. Batan Jl. Grafika No.1 3, RT.1/RW.2 Buka 24 jam Buka 24 jam Buka 24 jam",-6.2920564,106.771715
DKI Jakarta,Kota Administrasi Jakarta Selatan,Cilandak,"ATM BNI MALL CINERE - Jalan Raya Cinere No 1, Pangkalan Jati",ATM BNI MALL CINERE,"Jalan Raya Cinere No 1, Pangkalan Jati","5,0 (1) ATM ATM · Jalan Raya Cinere No 1, Pangkalan Jati (021) 57899999 (021) 57899999",-6.3153501,106.7956468
DKI Jakarta,Kota Administrasi Jakarta Selatan,Cilandak,"ATM BNI PT. IQ PASAR JUMAT - Jl. Batan, RT.5/RW.4",ATM BNI PT. IQ PASAR JUMAT,"Jl. Batan, RT.5/RW.4","5,0 (1) Bank Bank · Jl. Batan, RT.5/RW.4 (021) 57899999 (021) 57899999",-6.303112,106.779493
DKI Jakarta,Kota Administrasi Jakarta Selatan,Cilandak,"BNI - Jl. Karang Tengah Raya No.B12, RT.6/RW.6",BNI,"Jl. Karang Tengah Raya No.B12, RT.6/RW.6","Tidak ada ulasan ATM ATM · Jl. Karang Tengah Raya No.B12, RT.6/RW.6 (021) 500046 (021) 500046",-6.303152,106.7812142
DKI Jakarta,Kota Administrasi Jakarta Selatan,Cilandak,"ATM BNI INDOMARET BONA INDAH - Jl. Lb. Bulus No.1, RT.5/RW.4",ATM BNI INDOMARET BONA INDAH,"Jl. Lb. Bulus No.1, RT.5/RW.4","Tidak ada ulasan Bank Bank · Jl. Lb. Bulus No.1, RT.5/RW.4 (021) 57899999 (021) 57899999",-6.303112,106.779493
DKI Jakarta,Kota Administrasi Jakarta Selatan,Cilandak,"ATM BNI MARKAS CILANDAK KKO 1 - Jl. Raya Cilandak KKO No.Kel, RT.12/RW.5",ATM BNI MARKAS CILANDAK KKO 1,"Jl. Raya Cilandak KKO No.Kel, RT.12/RW.5","3,0 (2) Bank Bank · Jl. Raya Cilandak KKO No.Kel, RT.12/RW.5 (021) 57899999 (021) 57899999",-6.3037035,106.8111922
DKI Jakarta,Kota Administrasi Jakarta Selatan,Cilandak,"ATM BNI RS FATMAWATI - Jalan Rs. Fatmawati, RT.4/RW.9",ATM BNI RS FATMAWATI,"Jalan Rs. Fatmawati, RT.4/RW.9","Tidak ada ulasan ATM ATM · Jalan Rs. Fatmawati, RT.4/RW.9 (021) 57899999 (021) 57899999",-6.2945271,106.7954088
DKI Jakarta,Kota Administrasi Jakarta Selatan,Cilandak,ATM BNI - Jalan RS. Fatmawati,ATM BNI,Jalan RS. Fatmawati,"Tidak ada ulasan ATM ATM · MQMV+Q9F, Universitas Pembangunan Nasional Jakarta, Jalan RS. Fatmawati Buka ⋅ Tutup pukul 20.00",-6.3155542,106.7934271
DKI Jakarta,Kota Administrasi Jakarta Selatan,Cilandak,"ATM BANK BNI - Jl. Raya Cilandak KKO, RT.1/RW.5",ATM BANK BNI,"Jl. Raya Cilandak KKO, RT.1/RW.5","5,0 (1) ATM ATM · PR38+65F, Jl. Raya Cilandak KKO, RT.1/RW.5 Buka 24 jam Buka 24 jam Buka 24 jam · 1 500 046",-6.2969326,106.8154302
DKI Jakarta,Kota Administrasi Jakarta Selatan,Cilandak,"ATM BNI INDOMARET PD. LABU - Jl. RS. Fatmawati Raya, RT.4/RW.9",ATM BNI INDOMARET PD. LABU,"Jl. RS. Fatmawati Raya, RT.4/RW.9","Tidak ada ulasan ATM ATM · Jl. RS. Fatmawati Raya, RT.4/RW.9 (021) 57899999 (021) 57899999",-6.292297,106.79719
DKI Jakarta,Kota Administrasi Jakarta Selatan,Cilandak,"ATM BNI RS. MARINIR CILANDAK - Jl. Raya Cilandak KKO No.Raya 3, RT.3/RW.5",ATM BNI RS. MARINIR CILANDAK,"Jl. Raya Cilandak KKO No.Raya 3, RT.3/RW.5","5,0 (1) ATM ATM · Jl. Raya Cilandak KKO No.Raya 3, RT.3/RW.5 (021) 57899999 (021) 57899999",-6.3053295,106.813687
DKI Jakarta,Kota Administrasi Jakarta Selatan,Cilandak,"ATM BNI GIANT LEBAK BULUS - Jalan Lebak Lestari Raya No.9 7, RT.9/RW.7",ATM BNI GIANT LEBAK BULUS,"Jalan Lebak Lestari Raya No.9 7, RT.9/RW.7","4,0 (2) ATM ATM · Jalan Lebak Lestari Raya No.9 7, RT.9/RW.7 (021) 57899999 (021) 57899999",-6.2900942,106.7776942
DKI Jakarta,Kota Administrasi Jakarta Selatan,Cilandak,"ATM BNI GIANT POINT SQUARE - Jl. Lebak Bulus Raya, RT.9/RW.7",ATM BNI GIANT POINT SQUARE,"Jl. Lebak Bulus Raya, RT.9/RW.7","4,0 (2) Bank Bank · Jl. Lebak Bulus Raya, RT.9/RW.7 (021) 57899999 (021) 57899999",-6.2899439,106.7780086
DKI Jakarta,Kota Administrasi Jakarta Selatan,Cilandak,"ATM BNI - Jl. R.A. Kartini Lantai G, RT.9/RW.7",ATM BNI,"Jl. R.A. Kartini Lantai G, RT.9/RW.7","Tidak ada ulasan ATM ATM · Mall Poins Square, Jl. R.A. Kartini Lantai G, RT.9/RW.7 Buka ⋅ Tutup pukul 21.00 · (021) 500046",-6.2897942,106.7781588
DKI Jakarta,Kota Administrasi Jakarta Selatan,Cilandak,"BNI ATM - Jl. Raya Cirendeu, RT.14/RW.3",BNI ATM,"Jl. Raya Cirendeu, RT.14/RW.3","4,6 (7) ATM ATM · Jl. Raya Cirendeu, RT.14/RW.3 Buka ⋅ Tutup pukul 23.00 · (021) 57899999",-6.3105218,106.7714204
DKI Jakarta,Kota Administrasi Jakarta Selatan,Cilandak,"ATM BNI Lotte Mart Fatmawati - Jalan RS. Fatmawati, Gandaria Selatan, Cilandak, RT.8/RW.6",ATM BNI Lotte Mart Fatmawati,"Jalan RS. Fatmawati, Gandaria Selatan, Cilandak, RT.8/RW.6","4,0 (1) ATM ATM · Lotte Mart Fatmawati, Lt. Dasar, Komplek Golden Fatmawati No. 15, Jalan RS. Fatmawati, Gandaria Selatan, Cilandak, RT.8/RW.6 Buka ⋅ Tutup pukul 22.00 · (021) 1500046",-6.275374,106.7974939
DKI Jakarta,Kota Administrasi Jakarta Selatan,Cilandak,"ATM BNI SOVEREIGN PLAZA - Jl. TB Simatupang, RT.2/RW.1",ATM BNI SOVEREIGN PLAZA,"Jl. TB Simatupang, RT.2/RW.1","3,0 (1) Bank Bank · Jl. TB Simatupang, RT.2/RW.1 Buka 24 jam Buka 24 jam Buka 24 jam · (021) 57899999",-6.2929564,106.802922
DKI Jakarta,Kota Administrasi Jakarta Selatan,Cilandak,"ATM BNI GEDUNG MENARA 165 - Jl. TB Simatupang, RT.2/RW.1",ATM BNI GEDUNG MENARA 165,"Jl. TB Simatupang, RT.2/RW.1","3,3 (3) Bank Bank · Jl. TB Simatupang, RT.2/RW.1 Buka 24 jam Buka 24 jam Buka 24 jam · (021) 57899999",-6.2906054,106.8096212
DKI Jakarta,Kota Administrasi Jakarta Selatan,Cilandak,"ATM BNI RS. Marinir Cilandak - Jl. Raya Cilandak KKO, RT.10/RW.5",ATM BNI RS. Marinir Cilandak,"Jl. Raya Cilandak KKO, RT.10/RW.5","Tidak ada ulasan ATM ATM · MRV6+X65, Jl. Raya Cilandak KKO, RT.10/RW.5",-6.3051234,106.8106141
DKI Jakarta,Kota Administrasi Jakarta Selatan,Cilandak,"ATM BNI KLN UPN VETERAN PONDOK LABU-CDM - Jl. RS. Fatmawati Raya, RT.3/RW.10",ATM BNI KLN UPN VETERAN PONDOK LABU-CDM,"Jl. RS. Fatmawati Raya, RT.3/RW.10","Tidak ada ulasan Bank Bank · Jl. RS. Fatmawati Raya, RT.3/RW.10 (021) 57899999 (021) 57899999",-6.2804313,106.7961993
DKI Jakarta,Kota Administrasi Jakarta Selatan,Cilandak,"ATM BNI KKO - Jl. Margasatwa, RT.5/RW.7",ATM BNI KKO,"Jl. Margasatwa, RT.5/RW.7","2,3 (3) ATM ATM · Jl. Margasatwa, RT.5/RW.7 (021) 57899999 (021) 57899999",-6.3104055,106.8139229
DKI Jakarta,Kota Administrasi Jakarta Selatan,Cilandak,"ATM BNI - Jl. Jeruk Purut No.9 1, RT.1/RW.3",ATM BNI,"Jl. Jeruk Purut No.9 1, RT.1/RW.3","5,0 (2) ATM ATM · Jl. Jeruk Purut No.9 1, RT.1/RW.3",-6.2897183,106.8125728
DKI Jakarta,Kota Administrasi Jakarta Selatan,Cilandak,"ATM BNI - Jl. RS. Fatmawati Raya, RT.6/RW.5",ATM BNI,"Jl. RS. Fatmawati Raya, RT.6/RW.5","3,5 (2) ATM ATM · PQJW+QXQ, Jl. RS. Fatmawati Raya, RT.6/RW.5 Buka 24 jam Buka 24 jam Buka 24 jam",-6.2680377,106.7974991
DKI Jakarta,Kota Administrasi Jakarta Selatan,Cilandak,"ATM BNI IPDN - Jl. Ampera Raya No.45 8, RT.8/RW.2",ATM BNI IPDN,"Jl. Ampera Raya No.45 8, RT.8/RW.2","3,7 (3) ATM ATM · Jl. Ampera Raya No.45 8, RT.8/RW.2 Buka 24 jam Buka 24 jam Buka 24 jam",-6.284676,106.8183189
DKI Jakarta,Kota Administrasi Jakarta Selatan,Cilandak,"ATM BNI - Jalan Lebak Bulus Raya No.8, Kebayoran Lama, RT.10/RW.7",ATM BNI,"Jalan Lebak Bulus Raya No.8, Kebayoran Lama, RT.10/RW.7","2,0 (2) ATM ATM · Jalan Lebak Bulus Raya No.8, Kebayoran Lama, RT.10/RW.7 Buka 24 jam Buka 24 jam Buka 24 jam · (021) 57899999",-6.2882053,106.7762022
DKI Jakarta,Kota Administrasi Jakarta Selatan,Cilandak,"ATM BNI - Jl. Abdul Majid Raya No.33 1, RT.1/RW.2",ATM BNI,"Jl. Abdul Majid Raya No.33 1, RT.1/RW.2","2,0 (1) ATM ATM · Jl. Abdul Majid Raya No.33 1, RT.1/RW.2 Buka 24 jam Buka 24 jam Buka 24 jam · (021) 1500046",-6.2670828,106.8020502
DKI Jakarta,Kota Administrasi Jakarta Selatan,Cilandak,"ATM Bank BNI - Jl. TB Simatupang No.36 1, RT.1/RW.2",ATM Bank BNI,"Jl. TB Simatupang No.36 1, RT.1/RW.2","Tidak ada ulasan ATM ATM · Sovereign Plaza, Jl. TB Simatupang No.36 1, RT.1/RW.2 Tutup ⋅ Buka Sab pukul 08.00",-6.2930242,106.8030431
DKI Jakarta,Kota Administrasi Jakarta Selatan,Cilandak,BNI UPN Veteran Pondok Labu,BNI UPN Veteran Pondok Labu,,"4,5 (32) Bank Bank Tutup ⋅ Buka Sen pukul 08.00 · (021) 75816185",-6.3155102,106.7934206
DKI Jakarta,Kota Administrasi Jakarta Selatan,Cilandak,"BNI CILANDAK KKO - Jl. Raya Cilandak KKO No.42, RT.14/RW.8",BNI CILANDAK KKO,"Jl. Raya Cilandak KKO No.42, RT.14/RW.8","4,3 (53) Bank Bank · Cilandak Timur, Pasar Minggu, Jl. Raya Cilandak KKO No.42, RT.14/RW.8 Tutup ⋅ Buka Sen pukul 08.00 · (021) 78837580",-6.3103174,106.8139905
DKI Jakarta,Kota Administrasi Jakarta Selatan,Cilandak,"ATM BNI SPBU M KAHFI 1 - Jl. Moh. Kahfi 1 No.51 2, RT.2/RW.6",ATM BNI SPBU M KAHFI 1,"Jl. Moh. Kahfi 1 No.51 2, RT.2/RW.6","3,6 (7) ATM ATM · Jl. Moh. Kahfi 1 No.51 2, RT.2/RW.6 Buka 24 jam Buka 24 jam Buka 24 jam · (021) 57899999",-6.3135274,106.8122363
DKI Jakarta,Kota Administrasi Jakarta Selatan,Cilandak,"ATM BNI INS.ILMU PEMERINTAHAN / IIP AMPERA - Jl. Ampera Raya, RT.8/RW.2",ATM BNI INS.ILMU PEMERINTAHAN / IIP AMPERA,"Jl. Ampera Raya, RT.8/RW.2","4,0 (1) Bank Bank · Jl. Ampera Raya, RT.8/RW.2 Buka 24 jam Buka 24 jam Buka 24 jam · (021) 57899999",-6.28578,106.8187
DKI Jakarta,Kota Administrasi Jakarta Selatan,Cilandak,"BNI FATMAWATI - Jl. RS. Fatmawati Raya No.115 4, RT.4/RW.4",BNI FATMAWATI,"Jl. RS. Fatmawati Raya No.115 4, RT.4/RW.4","3,8 (122) Bank Bank ·   · Jalan RS. Fatmawati Blok D III No.115, Jl. RS. Fatmawati Raya No.115 4, RT.4/RW.4 Tutup ⋅ Buka Sen pukul 08.00 · (021) 7500339",-6.299397,106.7943761
DKI Jakarta,Kota Administrasi Jakarta Selatan,Cilandak,ATM BNI SUPERINDO CIRENDEU - Jl. Raya Cirendeu No.20,ATM BNI SUPERINDO CIRENDEU,Jl. Raya Cirendeu No.20,"3,8 (4) ATM ATM · Jl. Raya Cirendeu No.20 Buka ⋅ Tutup pukul 21.00 · (021) 57899999",-6.3179195,106.7683778
DKI Jakarta,Kota Administrasi Jakarta Selatan,Cilandak,"ATM BNI KK CIPETE - Jl. Fatmawati, RT.1/RW.5",ATM BNI KK CIPETE,"Jl. Fatmawati, RT.1/RW.5","5,0 (1) Bank Bank · Jl. Fatmawati, RT.1/RW.5 Buka 24 jam Buka 24 jam Buka 24 jam · (021) 57899999",-6.263477,106.798494
DKI Jakarta,Kota Administrasi Jakarta Selatan,Cilandak,"ATM BNI KLN PONDOK INDAH SHOPP. MALL - Jl. RS. Fatmawati Raya, RT.3/RW.10",ATM BNI KLN PONDOK INDAH SHOPP. MALL,"Jl. RS. Fatmawati Raya, RT.3/RW.10","Tidak ada ulasan Bank Bank · Jl. RS. Fatmawati Raya, RT.3/RW.10 (021) 57899999 (021) 57899999",-6.2804313,106.7961993
DKI Jakarta,Kota Administrasi Jakarta Selatan,Cilandak,"ATM BNI RS SETIA MITRA - Jl. RS. Fatmawati Raya Haji Butong 3 No.80 3, RT.10/RW.6",ATM BNI RS SETIA MITRA,"Jl. RS. Fatmawati Raya Haji Butong 3 No.80 3, RT.10/RW.6","Tidak ada ulasan Bank Bank · Jl. RS. Fatmawati Raya Haji Butong 3 No.80 3, RT.10/RW.6 (021) 57899999 (021) 57899999",-6.2810772,106.796081
DKI Jakarta,Kota Administrasi Jakarta Selatan,Cilandak,"ATM BNI GOLDEN FATMAWATI - Jl. RS. Fatmawati Raya, RT.3/RW.4",ATM BNI GOLDEN FATMAWATI,"Jl. RS. Fatmawati Raya, RT.3/RW.4","Tidak ada ulasan Bank Bank · Jl. RS. Fatmawati Raya, RT.3/RW.4 (021) 57899999 (021) 57899999",-6.2720162,106.7973759
DKI Jakarta,Kota Administrasi Jakarta Selatan,Cilandak,BNI - RT.15/RW.10,BNI,RT.15/RW.10,"Tidak ada ulasan Bank Bank · GF , Hero Terogong , JL. Terogong Raya, Cilandak Barat , Cilandak , 12430 Jakarta Selatan , DKI Jakarta, RT.15/RW.10 (021) 78869811 (021) 78869811",-6.2827062,106.7916476
DKI Jakarta,Kota Administrasi Jakarta Selatan,Cilandak,"ATM BNI - Jl. RS. Fatmawati Raya, RT.3/RW.2",ATM BNI,"Jl. RS. Fatmawati Raya, RT.3/RW.2","Tidak ada ulasan ATM ATM · Duta Mas Blok B, No.39, Jl. RS. Fatmawati Raya, RT.3/RW.2 Buka 24 jam Buka 24 jam Buka 24 jam · (021) 500046",-6.264141,106.7965848
DKI Jakarta,Kota Administrasi Jakarta Selatan,Cilandak,"BNI - Jalan Taman Duta Pondok Indah, RT.4/RW.14",BNI,"Jalan Taman Duta Pondok Indah, RT.4/RW.14","5,0 (1) ATM ATM · Jalan Taman Duta Pondok Indah, RT.4/RW.14 Buka 24 jam Buka 24 jam Buka 24 jam · (021) 500046",-6.2835902,106.7814566
DKI Jakarta,Kota Administrasi Jakarta Selatan,Cilandak,ATM BNI PUSDIKLAT KEJAGUNG - RT.6/RW.7,ATM BNI PUSDIKLAT KEJAGUNG,RT.6/RW.7,"4,7 (3) ATM ATM · JL. RM. Harsono, Pasar Minggu, Jagakarsa, RT.6/RW.7 Buka 24 jam Buka 24 jam Buka 24 jam · (021) 57899999",-6.3045027,106.8212485
DKI Jakarta,Kota Administrasi Jakarta Selatan,Cilandak,"Atm Bni Kln Ampera - Jl. Ampera Raya, RT.5/RW.6",Atm Bni Kln Ampera,"Jl. Ampera Raya, RT.5/RW.6","3,6 (14) Bank Bank · Jl. Ampera Raya, RT.5/RW.6 (021) 57899999 (021) 57899999",-6.2820739,106.8192006
DKI Jakarta,Kota Administrasi Jakarta Selatan,Cilandak,BNI KK South Quarter - Jl. R.A. Kartini No.Kav.8 A Lt. GF,BNI KK South Quarter,Jl. R.A. Kartini No.Kav.8 A Lt. GF,"Tidak ada ulasan Bank Bank · South Quarter Tower, Jl. R.A. Kartini No.Kav.8 A Lt. GF Tutup ⋅ Buka Sen pukul 08.00 · (021) 22767664",-6.2938417,106.7843388
DKI Jakarta,Kota Administrasi Jakarta Selatan,Cilandak,ATM BNI UNIV MUHAMMADIYAH JKT,ATM BNI UNIV MUHAMMADIYAH JKT,,"Tidak ada ulasan ATM ATM · JL. Kyai Ahmad Dahlan, Cirendeu, Ciputat, RW.2 Buka 24 jam Buka 24 jam Buka 24 jam · (021) 57899999",-6.2960874,106.7662499
DKI Jakarta,Kota Administrasi Jakarta Selatan,Cilandak,"ATM Bank BRI Karang Tengah - Jl. Karang Tengah Raya No.42, RT.6/RW.4",ATM Bank BRI Karang Tengah,"Jl. Karang Tengah Raya No.42, RT.6/RW.4","3,6 (5) ATM ATM · 6, Jl. Karang Tengah Raya No.42, RT.6/RW.4 Buka 24 jam Buka 24 jam Buka 24 jam · (021) 14019",-6.3065967,106.7816163
DKI Jakarta,Kota Administrasi Jakarta Selatan,Cilandak,ATM BNI - Jl. Abdul Majid Raya,ATM BNI,Jl. Abdul Majid Raya,Tidak ada ulasan ATM ATM · Jl. Abdul Majid Raya,-6.2658394,106.799317
DKI Jakarta,Kota Administrasi Jakarta Selatan,Cilandak,ATM BNI SPBU PONDOK INDAH - RT.1/RW.16,ATM BNI SPBU PONDOK INDAH,RT.1/RW.16,"2,5 (4) Bank Bank · RT.1/RW.16 Buka 24 jam Buka 24 jam Buka 24 jam · (021) 57899999",-6.2590872,106.781976
DKI Jakarta,Kota Administrasi Jakarta Selatan,Cilandak,ATM BNI,ATM BNI,,"4,0 (2) ATM ATM · Rengas, Ciputat Timur Buka 24 jam Buka 24 jam Buka 24 jam · (021) 57899999",-6.300507,106.759218
DKI Jakarta,Kota Administrasi Jakarta Selatan,Cilandak,Bank BNI Cirendeu - Jl. Raya Cirendeu No.29 C - D,Bank BNI Cirendeu,Jl. Raya Cirendeu No.29 C - D,"4,2 (41) Bank Bank · Jl. Raya Cirendeu No.29 C - D Tutup ⋅ Buka Sen pukul 08.00 · (021) 7441251",-6.3105908,106.7715196
DKI Jakarta,Kota Administrasi Jakarta Selatan,Cilandak,"ATM BNI INDOMARET JL. HJ. NAWI - Jl. H. Nawi, RT.7/RW.7",ATM BNI INDOMARET JL. HJ. NAWI,"Jl. H. Nawi, RT.7/RW.7","3,0 (3) ATM ATM · Jl. H. Nawi, RT.7/RW.7 Buka 24 jam Buka 24 jam Buka 24 jam · (021) 57899999",-6.2637121,106.7954533
DKI Jakarta,Kota Administrasi Jakarta Selatan,Cilandak,"ATM BNI - Jl. Ampera Raya No.62A 4, RT.4/RW.6",ATM BNI,"Jl. Ampera Raya No.62A 4, RT.4/RW.6","4,5 (2) ATM ATM · Jl. Ampera Raya No.62A 4, RT.4/RW.6 Tutup ⋅ Buka Sen pukul 08.00 · (021) 500046",-6.2820962,106.8191953
DKI Jakarta,Kota Administrasi Jakarta Selatan,Cilandak,BNI - Jl. Purnawarman No.4,BNI,Jl. Purnawarman No.4,Tidak ada ulasan ATM ATM · Jl. Purnawarman No.4 (021) 78869811 (021) 78869811,-6.3181293,106.7684553
DKI Jakarta,Kota Administrasi Jakarta Selatan,Cilandak,"ATM BNI KLN Duta Mas Fatmawati - Jl. RS. Fatmawati Raya Blok Husen No.24, RT.5/RW.9",ATM BNI KLN Duta Mas Fatmawati,"Jl. RS. Fatmawati Raya Blok Husen No.24, RT.5/RW.9","Tidak ada ulasan ATM ATM · Jl. RS. Fatmawati Raya Blok Husen No.24, RT.5/RW.9 Buka 24 jam Buka 24 jam Buka 24 jam",-6.2616224,106.7968668
DKI Jakarta,Kota Administrasi Jakarta Selatan,Cilandak,ATM BNI SPBU KAHFI - RT.5/RW.6,ATM BNI SPBU KAHFI,RT.5/RW.6,Tidak ada ulasan Bank Bank · RT.5/RW.6 (021) 57899999 (021) 57899999,-6.3135029,106.8124264
DKI Jakarta,Kota Administrasi Jakarta Selatan,Cilandak,"ATM BNI SPBU JAGAKARSA - Jl. MOH. Kahfi II, Srengseng Sawah, Jagakarsa, RT.8/RW.6",ATM BNI SPBU JAGAKARSA,"Jl. MOH. Kahfi II, Srengseng Sawah, Jagakarsa, RT.8/RW.6","5,0 (1) ATM ATM · Jl. MOH. Kahfi II, Srengseng Sawah, Jagakarsa, RT.8/RW.6 (021) 57899999 (021) 57899999",-6.3134524,106.8124182
DKI Jakarta,Kota Administrasi Jakarta Selatan,Cilandak,"BNI CIPETE - Jl. RS. Fatmawati Raya No.33 14, RT.14/RW.4",BNI CIPETE,"Jl. RS. Fatmawati Raya No.33 14, RT.14/RW.4","3,8 (17) Bank Bank ·   · Jl. RS. Fatmawati Raya No.33 14, RT.14/RW.4 Tutup ⋅ Buka Sen pukul 08.00 · (021) 75921200",-6.2770548,106.7978995
DKI Jakarta,Kota Administrasi Jakarta Selatan,Cilandak,"BNI KCP Bona Indah - Jl. Karang Tengah Raya Kompl. Ruko, Jl. Bona Indah",BNI KCP Bona Indah,"Jl. Karang Tengah Raya Kompl. Ruko, Jl. Bona Indah","Tidak ada ulasan Bank Bank · Bisnis Center, Jl. Karang Tengah Raya Kompl. Ruko, Jl. Bona Indah Tutup ⋅ Buka Sen pukul 08.00 · (021) 75818359",-6.3023898,106.7816048
DKI Jakarta,Kota Administrasi Jakarta Selatan,Cilandak,"ATM BNI RSIA KEMANG - Jl. Ampera Raya, RT.2/RW.9",ATM BNI RSIA KEMANG,"Jl. Ampera Raya, RT.2/RW.9","Tidak ada ulasan Bank Bank · Jl. Ampera Raya, RT.2/RW.9 (021) 57899999 (021) 57899999",-6.2863199,106.8192409
DKI Jakarta,Kota Administrasi Jakarta Selatan,Cilandak,ATM Link BNI - RT.6/RW.5,ATM Link BNI,RT.6/RW.5,"Tidak ada ulasan ATM ATM · 6, RT.6/RW.5 Buka 24 jam Buka 24 jam Buka 24 jam",-6.2612311,106.7968231
DKI Jakarta,Kota Administrasi Jakarta Selatan,Cilandak,"ATM Mandiri - Jl. Karang Tengah Raya No.37 6, RT.6/RW.3",ATM Mandiri,"Jl. Karang Tengah Raya No.37 6, RT.6/RW.3","5,0 (1) ATM ATM · Indomaret, Jl. Karang Tengah Raya No.37 6, RT.6/RW.3 Buka 24 jam Buka 24 jam Buka 24 jam",-6.3147535,106.7817638
DKI Jakarta,Kota Administrasi Jakarta Selatan,Cilandak,BNI CINERE - Jl. Cinere Raya No.41,BNI CINERE,Jl. Cinere Raya No.41,"4,4 (112) Bank Bank · Blok A, Jl. Cinere Raya No.41 Tutup ⋅ Buka Sen pukul 08.00 · (021) 7546375",-6.3262426,106.7845617
DKI Jakarta,Kota Administrasi Jakarta Selatan,Cilandak,Bni - RT.1/RW.16,Bni,RT.1/RW.16,"5,0 (1) ATM ATM · PQJM+HWP, RT.1/RW.16 1 500 046 1 500 046",-6.2685474,106.7848178
DKI Jakarta,Kota Administrasi Jakarta Selatan,Cilandak,"ATM BNI BRAWIJAYA WOMEN HOSPITAL - Jl. Taman Brawijaya No.1, RT.3/RW.3",ATM BNI BRAWIJAYA WOMEN HOSPITAL,"Jl. Taman Brawijaya No.1, RT.3/RW.3","3,0 (2) ATM ATM · Jl. Taman Brawijaya No.1, RT.3/RW.3 Buka 24 jam Buka 24 jam Buka 24 jam",-6.2574112,106.8075451
DKI Jakarta,Kota Administrasi Jakarta Selatan,Cilandak,"ATM BNI Indomaret Haji Jian - Jl. H. Jian No.81 1, RT.1/RW.7",ATM BNI Indomaret Haji Jian,"Jl. H. Jian No.81 1, RT.1/RW.7","Tidak ada ulasan ATM ATM · Jl. H. Jian No.81 1, RT.1/RW.7 Buka 24 jam Buka 24 jam Buka 24 jam",-6.2621318,106.8056654
DKI Jakarta,Kota Administrasi Jakarta Selatan,Cilandak,"ATM BNI KK Pertamina Hulu Energi - Jl. TB. Simatupang No. 5A, 6D-E1, Cilandak Barat, Cilandak, RT.1/RW.1",ATM BNI KK Pertamina Hulu Energi,"Jl. TB. Simatupang No. 5A, 6D-E1, Cilandak Barat, Cilandak, RT.1/RW.1","5,0 (1) ATM ATM · Gedung Pertamina Hulu Energi Lt. LG, Jl. TB. Simatupang No. 5A, 6D-E1, Cilandak Barat, Cilandak, RT.1/RW.1 Buka 24 jam Buka 24 jam Buka 24 jam · (021) 1500046",-6.3003472,106.8330279
DKI Jakarta,Kota Administrasi Jakarta Selatan,Cilandak,"ATM BNI - Jl. Metro Pondok Indah No.3 3, RT.3/RW.14",ATM BNI,"Jl. Metro Pondok Indah No.3 3, RT.3/RW.14","Tidak ada ulasan ATM ATM · Pd. Indah Plaza 2, Jl. Metro Pondok Indah No.3 3, RT.3/RW.14 (021) 500046 (021) 500046",-6.2855368,106.7806013
DKI Jakarta,Kota Administrasi Jakarta Selatan,Cilandak,"PT. Bank Negara Indonesia Persero Tbk - Jl. RS. Fatmawati Raya No.57, RT.3/RW.5",PT. Bank Negara Indonesia Persero Tbk,"Jl. RS. Fatmawati Raya No.57, RT.3/RW.5","Tidak ada ulasan Bank Bank · Jl. RS. Fatmawati Raya No.57, RT.3/RW.5 (021) 7503980 (021) 7503980",-6.2878289,106.7951392
DKI Jakarta,Kota Administrasi Jakarta Selatan,Cilandak,"BNI - Jl. Ampera Raya No.62A, RT.4/RW.6",BNI,"Jl. Ampera Raya No.62A, RT.4/RW.6","2,8 (16) Bank Bank · Jl. Ampera Raya No.62A, RT.4/RW.6 Tutup ⋅ Buka Sen pukul 08.00 · (021) 7806490",-6.2820279,106.8191189
DKI Jakarta,Kota Administrasi Jakarta Selatan,Cilandak,ATM BNI Kln Univ.islam Negeri Syarif Hidayatullah - Jl. Ir H. Juanda No.95,ATM BNI Kln Univ.islam Negeri Syarif Hidayatullah,Jl. Ir H. Juanda No.95,"3,8 (5) ATM ATM · Jl. Ir H. Juanda No.95 Buka 24 jam Buka 24 jam Buka 24 jam · (021) 57899999",-6.3079548,106.7558259
DKI Jakarta,Kota Administrasi Jakarta Selatan,Cilandak,"ATM BNI FOOD GARDEN - Jl. Raya Pasar Minggu, RT.14/RW.8",ATM BNI FOOD GARDEN,"Jl. Raya Pasar Minggu, RT.14/RW.8","Tidak ada ulasan Bank Bank · Jl. Raya Pasar Minggu, RT.14/RW.8 Buka 24 jam Buka 24 jam Buka 24 jam · (021) 57899999",-6.2720397,106.8227793
DKI Jakarta,Kota Administrasi Jakarta Selatan,Cilandak,"ATM BNI RANCH MARKET PD INDAH - Jalan Metro Pondok Indah (PIM 1 Lt 1), Kebayoran Lama, RT.1/RW.16",ATM BNI RANCH MARKET PD INDAH,"Jalan Metro Pondok Indah (PIM 1 Lt 1), Kebayoran Lama, RT.1/RW.16","Tidak ada ulasan ATM ATM · Jalan Metro Pondok Indah (PIM 1 Lt 1), Kebayoran Lama, RT.1/RW.16 (021) 57899999 (021) 57899999",-6.2653472,106.7844916
DKI Jakarta,Kota Administrasi Jakarta Selatan,Cilandak,ATM BNI KLN UIN CIPUTAT NON TUNAI,ATM BNI KLN UIN CIPUTAT NON TUNAI,,"5,0 (1) Bank Bank Buka 24 jam Buka 24 jam Buka 24 jam · (021) 57899999",-6.3105456,106.758935
DKI Jakarta,Kota Administrasi Jakarta Selatan,Cilandak,"ATM BNI SPBU KAMPUNG UTAN - Jl. WR Supratman/17, Kampung Utan, Ciputat, Jl. W R Supratman Blok Mangga 1 No.16, RT.2/RW.5",ATM BNI SPBU KAMPUNG UTAN,"Jl. WR Supratman/17, Kampung Utan, Ciputat, Jl. W R Supratman Blok Mangga 1 No.16, RT.2/RW.5","3,2 (5) ATM ATM · Jl. WR Supratman/17, Kampung Utan, Ciputat, Jl. W R Supratman Blok Mangga 1 No.16, RT.2/RW.5 Buka 24 jam Buka 24 jam Buka 24 jam · (021) 1500046",-6.301685,106.7513734
DKI Jakarta,Kota Administrasi Jakarta Selatan,Cilandak,"ATM BNI KLN KEMANG - Jl. Kemang Raya No.47 11, RT.6/RW.2",ATM BNI KLN KEMANG,"Jl. Kemang Raya No.47 11, RT.6/RW.2","Tidak ada ulasan ATM ATM · Jl. Kemang Raya No.47 11, RT.6/RW.2 (021) 57899999 (021) 57899999",-6.2652424,106.816254
DKI Jakarta,Kota Administrasi Jakarta Selatan,Cilandak,ATM BNI BNI SYARIAH KCP PANGLIMA POLIM - RT.1/RW.7,ATM BNI BNI SYARIAH KCP PANGLIMA POLIM,RT.1/RW.7,"4,4 (26) Bank Bank · RT.1/RW.7 Tutup ⋅ Buka Sen pukul 09.00 · (021) 57899999",-6.2504508,106.797697
DKI Jakarta,Kota Administrasi Jakarta Selatan,Cilandak,"ATM BNI - Jl. Ciputat Raya, RT.4/RW.10",ATM BNI,"Jl. Ciputat Raya, RT.4/RW.10","5,0 (1) ATM ATM · Jl. Ciputat Raya, RT.4/RW.10 Buka 24 jam Buka 24 jam Buka 24 jam · (021) 57899999",-6.2600392,106.776957
DKI Jakarta,Kota Administrasi Jakarta Selatan,Cilandak,"ATM BNI KLN PONDOK PINANG - Jl. Ciputat Raya No.16 8, RT.8/RW.2",ATM BNI KLN PONDOK PINANG,"Jl. Ciputat Raya No.16 8, RT.8/RW.2","2,5 (2) ATM ATM · Jl. Ciputat Raya No.16 8, RT.8/RW.2 Buka 24 jam Buka 24 jam Buka 24 jam · (021) 57899999",-6.2685136,106.7752377
DKI Jakarta,Kota Administrasi Jakarta Selatan,Cilandak,ATM BNI KLN UNIV.ISLAM NEGERI SYARIF HIDAYATULLAH,ATM BNI KLN UNIV.ISLAM NEGERI SYARIF HIDAYATULLAH,,Tidak ada ulasan Bank Bank Tutup ⋅ Buka Sen pukul 08.00 · (021) 57899999,-6.288966,106.765861
DKI Jakarta,Kota Administrasi Jakarta Selatan,Cilandak,ATM BNI RM TANJUNG BARAT - RT.10/RW.1,ATM BNI RM TANJUNG BARAT,RT.10/RW.1,"2,5 (2) Bank Bank · Jagakarsa, RT.10/RW.1 Buka ⋅ Tutup pukul 20.00 · (021) 57899999",-6.3045628,106.8489061
DKI Jakarta,Kota Administrasi Jakarta Selatan,Cilandak,"ATM BNI KLN PIM 1 NONTUNAI - Jl. Metro Pondok Indah, RT.10/RW.15",ATM BNI KLN PIM 1 NONTUNAI,"Jl. Metro Pondok Indah, RT.10/RW.15","Tidak ada ulasan Bank Bank · Jl. Metro Pondok Indah, RT.10/RW.15 Tutup ⋅ Buka Sab pukul 10.00 · (021) 57899999",-6.2760041,106.7818041
DKI Jakarta,Kota Administrasi Jakarta Selatan,Cilandak,"ATM BNI - Jl. Petogogan II No.45 5, RT.5/RW.6",ATM BNI,"Jl. Petogogan II No.45 5, RT.5/RW.6","Tidak ada ulasan ATM ATM · Jl. Petogogan II No.45 5, RT.5/RW.6 Buka 24 jam Buka 24 jam Buka 24 jam",-6.2543862,106.794531
DKI Jakarta,Kota Administrasi Jakarta Selatan,Cilandak,"ATM BNI - Jl. Kemang Sel. No.14 1, RT.1/RW.3",ATM BNI,"Jl. Kemang Sel. No.14 1, RT.1/RW.3","Tidak ada ulasan ATM ATM · Jl. Kemang Sel. No.14 1, RT.1/RW.3 (021) 57899999 (021) 57899999",-6.2740655,106.8209548
DKI Jakarta,Kota Administrasi Jakarta Selatan,Cilandak,"ATM BNI - Jl. Radio Dalam Raya No.7, RT.7/RW.4",ATM BNI,"Jl. Radio Dalam Raya No.7, RT.7/RW.4","2,0 (1) ATM ATM · Jl. Radio Dalam Raya No.7, RT.7/RW.4 Buka 24 jam Buka 24 jam Buka 24 jam",-6.2521264,106.7912313
DKI Jakarta,Kota Administrasi Jakarta Selatan,Cilandak,"ATM BNI KLN JAGAKARSA - Jl. Memed Raya No.9 8, RT.8/RW.3",ATM BNI KLN JAGAKARSA,"Jl. Memed Raya No.9 8, RT.8/RW.3","5,0 (1) ATM ATM · Jl. Memed Raya No.9 8, RT.8/RW.3 Buka 24 jam Buka 24 jam Buka 24 jam · (021) 57899999",-6.3286863,106.8253217
DKI Jakarta,Kota Administrasi Jakarta Selatan,Cilandak,ATM BNI SWALAYAN NASRINDO MINIMARKET - RT.9/RW.7,ATM BNI SWALAYAN NASRINDO MINIMARKET,RT.9/RW.7,"1,0 (1) Bank Bank ·   · Pasar Minggu, RT.9/RW.7 (021) 57899999 (021) 57899999",-6.3093106,106.8271382
DKI Jakarta,Kota Administrasi Jakarta Selatan,Cilandak,"ATM BNI SPBU BINTARO KESEHATAN - Jl. Kesehatan Bawah I No.3, RT.3/RW.6",ATM BNI SPBU BINTARO KESEHATAN,"Jl. Kesehatan Bawah I No.3, RT.3/RW.6","3,3 (4) ATM ATM · Jl. Kesehatan Bawah I No.3, RT.3/RW.6 Buka 24 jam Buka 24 jam Buka 24 jam · (021) 57899999",-6.2705175,106.7600016
DKI Jakarta,Kota Administrasi Jakarta Selatan,Cilandak,"ATM BNI ALFAMART PONDOK PINANG - Jl. Ciputat Raya No.1, RT.1/RW.4",ATM BNI ALFAMART PONDOK PINANG,"Jl. Ciputat Raya No.1, RT.1/RW.4","Tidak ada ulasan ATM ATM · Jl. Ciputat Raya No.1, RT.1/RW.4 Buka 24 jam Buka 24 jam Buka 24 jam · (021) 57899999",-6.2665903,106.7747428
DKI Jakarta,Kota Administrasi Jakarta Selatan,Cilandak,"ATM BNI PST.PERTOKOAN RADIO DALAM - Jl. Hidup Baru No.1 10, RT.5/RW.4",ATM BNI PST.PERTOKOAN RADIO DALAM,"Jl. Hidup Baru No.1 10, RT.5/RW.4","4,0 (1) Bank Bank · Jl. Hidup Baru No.1 10, RT.5/RW.4 (021) 57899999 (021) 57899999",-6.2550786,106.7903612
DKI Jakarta,Kota Administrasi Jakarta Selatan,Cilandak,"Bank Syariah Indonesia KCP Cilandak - Jl. Raya Cilandak KKO No.5E, RT.14/RW.8",Bank Syariah Indonesia KCP Cilandak,"Jl. Raya Cilandak KKO No.5E, RT.14/RW.8","3,2 (81) Bank Bank · Jl. Raya Cilandak KKO No.5E, RT.14/RW.8 Tutup ⋅ Buka Sen pukul 08.00 · (021) 78848838",-6.2969649,106.815399
DKI Jakarta,Kota Administrasi Jakarta Selatan,Cilandak,"BNI Pondok Indah Mall-1 - Jl. Metro Pondok Indah Blok t492 No.kav IV/TA, RT.1/RW.16",BNI Pondok Indah Mall-1,"Jl. Metro Pondok Indah Blok t492 No.kav IV/TA, RT.1/RW.16","4,3 (56) Bank Bank ·   · Jl. Metro Pondok Indah Blok t492 No.kav IV/TA, RT.1/RW.16 Tutup ⋅ Buka Sen pukul 08.00 · (021) 75920749",-6.265434,106.7842023
DKI Jakarta,Kota Administrasi Jakarta Selatan,Cilandak,"ATM BNI - Jl. RC. Veteran Raya, RT.1/RW.6",ATM BNI,"Jl. RC. Veteran Raya, RT.1/RW.6","5,0 (1) ATM ATM · SPBU 34 - 12301, Jl. RC. Veteran Raya, RT.1/RW.6 Buka 24 jam Buka 24 jam Buka 24 jam",-6.2699278,106.7647608
DKI Jakarta,Kota Administrasi Jakarta Selatan,Cilandak,"ATM BNI - Jl. Darmawangsa VI No.5 Lt.Dasar, RT.5/RW.1",ATM BNI,"Jl. Darmawangsa VI No.5 Lt.Dasar, RT.5/RW.1","Tidak ada ulasan ATM ATM · The Darmawangsa Square, Jl. Darmawangsa VI No.5 Lt.Dasar, RT.5/RW.1 Buka ⋅ Tutup pukul 22.00 · (021) 57899999",-6.2534808,106.801495
DKI Jakarta,Kota Administrasi Jakarta Selatan,Cilandak,"ATM BNI KLN PIM-2 - Jl. Metro Pondok Indah No.33 1, RT.1/RW.16",ATM BNI KLN PIM-2,"Jl. Metro Pondok Indah No.33 1, RT.1/RW.16","4,6 (28) Bank Bank ·   · Jl. Metro Pondok Indah No.33 1, RT.1/RW.16 Tutup ⋅ Buka Sab pukul 10.00 · (021) 57899999",-6.2657508,106.7830465
DKI Jakarta,Kota Administrasi Jakarta Selatan,Jagakarsa,"ATM BNI SPBU M KAHFI 1 - Jl. Moh. Kahfi 1 No.51 2, RT.2/RW.6",ATM BNI SPBU M KAHFI 1,"Jl. Moh. Kahfi 1 No.51 2, RT.2/RW.6","3,6 (7) ATM ATM · Jl. Moh. Kahfi 1 No.51 2, RT.2/RW.6 Buka 24 jam Buka 24 jam Buka 24 jam · (021) 57899999",-6.3135274,106.8122363
DKI Jakarta,Kota Administrasi Jakarta Selatan,Jagakarsa,"ATM BNI SPBU JAGAKARSA - Jl. MOH. Kahfi II, Srengseng Sawah, Jagakarsa, RT.8/RW.6",ATM BNI SPBU JAGAKARSA,"Jl. MOH. Kahfi II, Srengseng Sawah, Jagakarsa, RT.8/RW.6","5,0 (1) ATM ATM · Jl. MOH. Kahfi II, Srengseng Sawah, Jagakarsa, RT.8/RW.6 (021) 57899999 (021) 57899999",-6.3134524,106.8124182
DKI Jakarta,Kota Administrasi Jakarta Selatan,Jagakarsa,"ATM BNI 46 JAGAKARSA - Jl. Raya Jagakarsa Blok Bontong No.30, RT.9/RW.3",ATM BNI 46 JAGAKARSA,"Jl. Raya Jagakarsa Blok Bontong No.30, RT.9/RW.3","4,3 (4) ATM ATM · No., Jl. Raya Jagakarsa Blok Bontong No.30, RT.9/RW.3 Buka 24 jam Buka 24 jam Buka 24 jam · (021) 1500046",-6.3273048,106.824319
DKI Jakarta,Kota Administrasi Jakarta Selatan,Jagakarsa,"ATM BNI KLN JAGAKARSA - Jl. Memed Raya No.9 8, RT.8/RW.3",ATM BNI KLN JAGAKARSA,"Jl. Memed Raya No.9 8, RT.8/RW.3","5,0 (1) ATM ATM · Jl. Memed Raya No.9 8, RT.8/RW.3 Buka 24 jam Buka 24 jam Buka 24 jam · (021) 57899999",-6.3286863,106.8253217
DKI Jakarta,Kota Administrasi Jakarta Selatan,Jagakarsa,"Atm Bni - Jl. Timbul No.32 C 6, RT.6/RW.5",Atm Bni,"Jl. Timbul No.32 C 6, RT.6/RW.5","3,7 (3) ATM ATM · Jl. Timbul No.32 C 6, RT.6/RW.5 Buka 24 jam Buka 24 jam Buka 24 jam",-6.3511304,106.8093948
DKI Jakarta,Kota Administrasi Jakarta Selatan,Jagakarsa,"ATM BNI, ATM BCA, CDM BCA, ATM BRI - Jl. Moh. Kahfi 1 No.49, RT.1/RW.1","ATM BNI, ATM BCA, CDM BCA, ATM BRI","Jl. Moh. Kahfi 1 No.49, RT.1/RW.1","3,0 (5) ATM ATM · Jl. Moh. Kahfi 1 No.49, RT.1/RW.1 Buka ⋅ Tutup pukul 23.00",-6.3450492,106.8037109
DKI Jakarta,Kota Administrasi Jakarta Selatan,Jagakarsa,"ATM Bank BNI - Jl. Timbul No.14 6, RT.6/RW.5",ATM Bank BNI,"Jl. Timbul No.14 6, RT.6/RW.5","5,0 (1) ATM ATM · Jl. Timbul No.14 6, RT.6/RW.5",-6.3511437,106.8094682
DKI Jakarta,Kota Administrasi Jakarta Selatan,Jagakarsa,ATM BNI SPBU M KAHFI - RT.5/RW.4,ATM BNI SPBU M KAHFI,RT.5/RW.4,"3,0 (2) Bank Bank · RT.5/RW.4 Buka 24 jam Buka 24 jam Buka 24 jam · (021) 57899999",-6.3431014,106.8177687
DKI Jakarta,Kota Administrasi Jakarta Selatan,Jagakarsa,"ATM BNI - Jl. Desa Putra No.5 32k, RT.6/RW.6",ATM BNI,"Jl. Desa Putra No.5 32k, RT.6/RW.6","5,0 (1) ATM ATM · Jl. Desa Putra No.5 32k, RT.6/RW.6 Buka 24 jam Buka 24 jam Buka 24 jam",-6.3452431,106.826086
DKI Jakarta,Kota Administrasi Jakarta Selatan,Jagakarsa,"ATM BNI KAMPUS ISTN - Jl. Moch. Kahfi II No.2, RT.1/RW.9",ATM BNI KAMPUS ISTN,"Jl. Moch. Kahfi II No.2, RT.1/RW.9","4,1 (12) ATM ATM ·   · 1, Jl. Moch. Kahfi II No.2, RT.1/RW.9 Buka 24 jam Buka 24 jam Buka 24 jam · (021) 57899999",-6.3549624,106.8107609
DKI Jakarta,Kota Administrasi Jakarta Selatan,Jagakarsa,"ATM BNI 46 - Jl. Lenteng Agung Raya No.8 6, RT.6/RW.1",ATM BNI 46,"Jl. Lenteng Agung Raya No.8 6, RT.6/RW.1","5,0 (1) ATM ATM · Jl. Lenteng Agung Raya No.8 6, RT.6/RW.1 Buka 24 jam Buka 24 jam Buka 24 jam",-6.3181994,106.8365743
DKI Jakarta,Kota Administrasi Jakarta Selatan,Jagakarsa,ATM BNI SPBU KAHFI - RT.5/RW.6,ATM BNI SPBU KAHFI,RT.5/RW.6,Tidak ada ulasan Bank Bank · RT.5/RW.6 (021) 57899999 (021) 57899999,-6.3135029,106.8124264
DKI Jakarta,Kota Administrasi Jakarta Selatan,Jagakarsa,"ATM BNI KFC JL RAYA LT.AGUNG - Jl. Raya Lenteng Agung No.Kel 10, RT.10/RW.2",ATM BNI KFC JL RAYA LT.AGUNG,"Jl. Raya Lenteng Agung No.Kel 10, RT.10/RW.2","2,0 (3) ATM ATM · Jl. Raya Lenteng Agung No.Kel 10, RT.10/RW.2 Buka 24 jam Buka 24 jam Buka 24 jam · (021) 57899999",-6.3450856,106.8337465
DKI Jakarta,Kota Administrasi Jakarta Selatan,Jagakarsa,ATM BNI,ATM BNI,,"4,3 (3) ATM ATM · MR2H+MWR, RW.3 Buka 24 jam Buka 24 jam Buka 24 jam",-6.3482576,106.8297652
DKI Jakarta,Kota Administrasi Jakarta Selatan,Jagakarsa,"ATM BNI - Jl. Damai 74 No.15 9, RT.9/RW.4",ATM BNI,"Jl. Damai 74 No.15 9, RT.9/RW.4","Tidak ada ulasan ATM ATM · No Jl. Damai 74 No.15 9, RT.9/RW.4 Buka ⋅ Tutup pukul 21.00",-6.3535552,106.801632
DKI Jakarta,Kota Administrasi Jakarta Selatan,Jagakarsa,"ATM BNI - Jl. Moh. Kahfi 1 No.54 6, RT.6/RW.4",ATM BNI,"Jl. Moh. Kahfi 1 No.54 6, RT.6/RW.4","4,5 (2) ATM ATM · SPBU Pertamina, Spbu (Cipedak), Jl. Moh. Kahfi 1 No.54 6, RT.6/RW.4",-6.3499785,106.8018093
DKI Jakarta,Kota Administrasi Jakarta Selatan,Jagakarsa,"ATM BNI AKBID BHAKTI PERTIWI - Jl. Jeruk Raya, RT.8/RW.1",ATM BNI AKBID BHAKTI PERTIWI,"Jl. Jeruk Raya, RT.8/RW.1","Tidak ada ulasan Bank Bank · Jl. Jeruk Raya, RT.8/RW.1 Buka 24 jam Buka 24 jam Buka 24 jam · (021) 57899999",-6.3347651,106.8278348
DKI Jakarta,Kota Administrasi Jakarta Selatan,Jagakarsa,"ATM BNI - Jl. Raya Lenteng Agung No.3 B, RT.8/RW.1",ATM BNI,"Jl. Raya Lenteng Agung No.3 B, RT.8/RW.1","Tidak ada ulasan ATM ATM · Jl. Raya Lenteng Agung No.3 B, RT.8/RW.1 Buka 24 jam Buka 24 jam Buka 24 jam · 1 500 046",-6.3224886,106.8352952
DKI Jakarta,Kota Administrasi Jakarta Selatan,Jagakarsa,"ATM BNI APARTEMEN KEBAGUSAN CITY - Jl. Baung, T. B. Simatupang, Tanjung Barat, Jagakarsa, RT.1/RW.3",ATM BNI APARTEMEN KEBAGUSAN CITY,"Jl. Baung, T. B. Simatupang, Tanjung Barat, Jagakarsa, RT.1/RW.3","5,0 (2) ATM ATM · Jl. Baung, T. B. Simatupang, Tanjung Barat, Jagakarsa, RT.1/RW.3 Buka 24 jam Buka 24 jam Buka 24 jam · (021) 1500046",-6.3069789,106.8352697
DKI Jakarta,Kota Administrasi Jakarta Selatan,Jagakarsa,ATM BNI RM TANJUNG BARAT - RT.10/RW.1,ATM BNI RM TANJUNG BARAT,RT.10/RW.1,"2,5 (2) Bank Bank · Jagakarsa, RT.10/RW.1 Buka ⋅ Tutup pukul 20.00 · (021) 57899999",-6.3045628,106.8489061
DKI Jakarta,Kota Administrasi Jakarta Selatan,Jagakarsa,"BNI JAGAKARSA - Jl. Raya Jagakarsa, RT.9/RW.3",BNI JAGAKARSA,"Jl. Raya Jagakarsa, RT.9/RW.3","4,2 (117) Bank Bank ·   · Jl. Raya Jagakarsa, RT.9/RW.3 Tutup ⋅ Buka Sen pukul 08.00 · (021) 7871899",-6.3273134,106.8242449
DKI Jakarta,Kota Administrasi Jakarta Selatan,Jagakarsa,"ATM BNI ALFA MART MERY ANDANI - Jl. Klp. 3 No.49 5, RT.6/RW.3",ATM BNI ALFA MART MERY ANDANI,"Jl. Klp. 3 No.49 5, RT.6/RW.3","Tidak ada ulasan ATM ATM · Jl. Klp. 3 No.49 5, RT.6/RW.3 (021) 57899999 (021) 57899999",-6.327164,106.829369
DKI Jakarta,Kota Administrasi Jakarta Selatan,Jagakarsa,"ATM BNI - Jalan Tb. Simatupang, RT.12/RW.5, Tanjung Barat, Jagakarsa, RT.12/RW.5",ATM BNI,"Jalan Tb. Simatupang, RT.12/RW.5, Tanjung Barat, Jagakarsa, RT.12/RW.5","5,0 (1) ATM ATM · Alfamart, No. 47 A - 8, Jalan Tb. Simatupang, RT.12/RW.5, Tanjung Barat, Jagakarsa, RT.12/RW.5 Buka 24 jam Buka 24 jam Buka 24 jam · (021) 1500046",-6.3039302,106.85105
DKI Jakarta,Kota Administrasi Jakarta Selatan,Jagakarsa,"ATM LINK BNI Alfamart - Jl. Moh. Kahfi 1 No.6, RT.6/RW.2",ATM LINK BNI Alfamart,"Jl. Moh. Kahfi 1 No.6, RT.6/RW.2","4,0 (2) ATM ATM · Jl. Moh. Kahfi 1 No.6, RT.6/RW.2",-6.3630545,106.8020248
DKI Jakarta,Kota Administrasi Jakarta Selatan,Jagakarsa,"ATM BNI 46 - Jl. TB Simatupang No.101 3, RT.3/RW.2",ATM BNI 46,"Jl. TB Simatupang No.101 3, RT.3/RW.2","Tidak ada ulasan ATM ATM · Jl. TB Simatupang No.101 3, RT.3/RW.2 Buka 24 jam Buka 24 jam Buka 24 jam",-6.3046075,106.8489794
DKI Jakarta,Kota Administrasi Jakarta Selatan,Jagakarsa,"ATM BNI GEDUNG ANEKA TAMBANG / ANTAM - Jl. TB Simatupang No.1 10, RT.10/RW.4",ATM BNI GEDUNG ANEKA TAMBANG / ANTAM,"Jl. TB Simatupang No.1 10, RT.10/RW.4","5,0 (1) ATM ATM · Jl. TB Simatupang No.1 10, RT.10/RW.4 Buka 24 jam Buka 24 jam Buka 24 jam · (021) 57899999",-6.3031697,106.8427815
DKI Jakarta,Kota Administrasi Jakarta Selatan,Jagakarsa,ATM BNI PUSDIKLAT KEJAGUNG - RT.6/RW.7,ATM BNI PUSDIKLAT KEJAGUNG,RT.6/RW.7,"4,7 (3) ATM ATM · JL. RM. Harsono, Pasar Minggu, Jagakarsa, RT.6/RW.7 Buka 24 jam Buka 24 jam Buka 24 jam · (021) 57899999",-6.3045027,106.8212485
DKI Jakarta,Kota Administrasi Jakarta Selatan,Jagakarsa,"ATM BNI KK KARANG TENGAH - Jl. Karang Tengah Raya No.21 6, RT.6/RW.3",ATM BNI KK KARANG TENGAH,"Jl. Karang Tengah Raya No.21 6, RT.6/RW.3","5,0 (2) ATM ATM · Jl. Karang Tengah Raya No.21 6, RT.6/RW.3 Buka 24 jam Buka 24 jam Buka 24 jam · (021) 57899999",-6.3154979,106.7824653
DKI Jakarta,Kota Administrasi Jakarta Selatan,Jagakarsa,ATM BNI - Jalan RS. Fatmawati,ATM BNI,Jalan RS. Fatmawati,"Tidak ada ulasan ATM ATM · MQMV+Q9F, Universitas Pembangunan Nasional Jakarta, Jalan RS. Fatmawati Buka ⋅ Tutup pukul 20.00",-6.3155542,106.7934271
DKI Jakarta,Kota Administrasi Jakarta Selatan,Jagakarsa,"ATM Masjid (BNI&Mandiri) - Jl. Kebagusan IV No.1 6, RT.10/RW.5",ATM Masjid (BNI&Mandiri),"Jl. Kebagusan IV No.1 6, RT.10/RW.5","4,3 (3) ATM ATM · Jl. Kebagusan IV No.1 6, RT.10/RW.5 Buka 24 jam Buka 24 jam Buka 24 jam",-6.3141109,106.8252376
DKI Jakarta,Kota Administrasi Jakarta Selatan,Jagakarsa,"ATM BNI - Jl. Raya Tj. Barat, RT.3/RW.4",ATM BNI,"Jl. Raya Tj. Barat, RT.3/RW.4","5,0 (1) ATM ATM · PR3R+68P, Jl. Raya Tj. Barat, RT.3/RW.4",-6.2969162,106.840815
DKI Jakarta,Kota Administrasi Jakarta Selatan,Jagakarsa,ATM BNI BPPTL - RT.1/RW.5,ATM BNI BPPTL,RT.1/RW.5,"5,0 (1) ATM ATM · 1, RT.1/RW.5 Buka sekarang Buka sekarang Buka sekarang · 0815-9406-009",-6.3467005,106.8142003
DKI Jakarta,Kota Administrasi Jakarta Selatan,Jagakarsa,"ATM BNI KK Pertamina Hulu Energi - Jl. TB. Simatupang No. 5A, 6D-E1, Cilandak Barat, Cilandak, RT.1/RW.1",ATM BNI KK Pertamina Hulu Energi,"Jl. TB. Simatupang No. 5A, 6D-E1, Cilandak Barat, Cilandak, RT.1/RW.1","5,0 (1) ATM ATM · Gedung Pertamina Hulu Energi Lt. LG, Jl. TB. Simatupang No. 5A, 6D-E1, Cilandak Barat, Cilandak, RT.1/RW.1 Buka 24 jam Buka 24 jam Buka 24 jam · (021) 1500046",-6.3003472,106.8330279
DKI Jakarta,Kota Administrasi Jakarta Selatan,Jagakarsa,"ATM BNI KKO - Jl. Margasatwa, RT.5/RW.7",ATM BNI KKO,"Jl. Margasatwa, RT.5/RW.7","2,3 (3) ATM ATM · Jl. Margasatwa, RT.5/RW.7 (021) 57899999 (021) 57899999",-6.3104055,106.8139229
DKI Jakarta,Kota Administrasi Jakarta Selatan,Jagakarsa,"ATM BNI MALL CINERE - Jalan Raya Cinere No 1, Pangkalan Jati",ATM BNI MALL CINERE,"Jalan Raya Cinere No 1, Pangkalan Jati","5,0 (1) ATM ATM · Jalan Raya Cinere No 1, Pangkalan Jati (021) 57899999 (021) 57899999",-6.3153501,106.7956468
DKI Jakarta,Kota Administrasi Jakarta Selatan,Jagakarsa,"ATM BNI KLN PANGLIMA POLIM-NON TUNAI - Jl. Fatmawati No.47, RT.6/RW.1",ATM BNI KLN PANGLIMA POLIM-NON TUNAI,"Jl. Fatmawati No.47, RT.6/RW.1","5,0 (2) Bank Bank · Jl. Fatmawati No.47, RT.6/RW.1 (021) 57899999 (021) 57899999",-6.314773,106.793451
DKI Jakarta,Kota Administrasi Jakarta Selatan,Jagakarsa,"ATM Bank BNI - Jl. Pangkalan Jati, RT.2/RW.5",ATM Bank BNI,"Jl. Pangkalan Jati, RT.2/RW.5","1,0 (2) ATM ATM · MQPW+QJJ, Jl. Pangkalan Jati, RT.2/RW.5",-6.3130457,106.796515
DKI Jakarta,Kota Administrasi Jakarta Selatan,Jagakarsa,ATM BNI - Jl. Bukit Cinere Raya,ATM BNI,Jl. Bukit Cinere Raya,"Tidak ada ulasan ATM ATM · MQ6V+6C3, Jl. Bukit Cinere Raya Buka 24 jam Buka 24 jam Buka 24 jam",-6.3394863,106.7935616
DKI Jakarta,Kota Administrasi Jakarta Selatan,Jagakarsa,ATM BNI SWALAYAN NASRINDO MINIMARKET - RT.9/RW.7,ATM BNI SWALAYAN NASRINDO MINIMARKET,RT.9/RW.7,"1,0 (1) Bank Bank ·   · Pasar Minggu, RT.9/RW.7 (021) 57899999 (021) 57899999",-6.3093106,106.8271382
DKI Jakarta,Kota Administrasi Jakarta Selatan,Jagakarsa,"BNI TANJUNG BARAT - Jl. Tj. Barat Selatan, RT.4/RW.1",BNI TANJUNG BARAT,"Jl. Tj. Barat Selatan, RT.4/RW.1","4,6 (81) Bank Bank · Jl. Tj. Barat Selatan, RT.4/RW.1 Tutup ⋅ Buka Sen pukul 08.00 · (021) 78849312",-6.3081701,106.8394908
DKI Jakarta,Kota Administrasi Jakarta Selatan,Jagakarsa,"BNI - Jalan Karang Tengah, RT.1/RW.3, Lebak Bulus, Cilandak, RT.13/RW.3",BNI,"Jalan Karang Tengah, RT.1/RW.3, Lebak Bulus, Cilandak, RT.13/RW.3","5,0 (1) ATM ATM · Jalan Karang Tengah, RT.1/RW.3, Lebak Bulus, Cilandak, RT.13/RW.3 Buka 24 jam Buka 24 jam Buka 24 jam · (021) 57899999",-6.3090742,106.7809041
DKI Jakarta,Kota Administrasi Jakarta Selatan,Jagakarsa,"ATM BNI Pasar Rebo - Jl. TB Simatupang No.30, RT.9/RW.2",ATM BNI Pasar Rebo,"Jl. TB Simatupang No.30, RT.9/RW.2","5,0 (3) ATM ATM · Jl. TB Simatupang No.30, RT.9/RW.2 Buka 24 jam Buka 24 jam Buka 24 jam · (021) 57899999",-6.3039595,106.8620715
DKI Jakarta,Kota Administrasi Jakarta Selatan,Jagakarsa,ATM BNI- FEB UI,ATM BNI- FEB UI,,"5,0 (2) ATM ATM · JRQG+WJG, Fakultas Ekonomi UI, JL Lingkar Kampus Raya, Komplek Kampus UI Buka ⋅ Tutup pukul 22.00 · (021) 57899999",-6.3601904,106.8265749
DKI Jakarta,Kota Administrasi Jakarta Selatan,Jagakarsa,"ATM BNI - Jl. Tanah Baru No.12, RT.3/RW.5",ATM BNI,"Jl. Tanah Baru No.12, RT.3/RW.5","4,3 (3) ATM ATM · Jl. Tanah Baru No.12, RT.3/RW.5 Buka 24 jam Buka 24 jam Buka 24 jam · 1 500 046",-6.3718585,106.8086204
DKI Jakarta,Kota Administrasi Jakarta Selatan,Jagakarsa,ATM BNI GOLDEN STEAK CAFE - Jl. Prof. Juanda,ATM BNI GOLDEN STEAK CAFE,Jl. Prof. Juanda,"5,0 (1) Bank Bank · Jl. Prof. Juanda Buka 24 jam Buka 24 jam Buka 24 jam · (021) 1500046",-6.3549774,106.8394658
DKI Jakarta,Kota Administrasi Jakarta Selatan,Jagakarsa,"ATM BNI 46 - Jl. Raya Tengah No.22, RT.8/RW.8",ATM BNI 46,"Jl. Raya Tengah No.22, RT.8/RW.8","4,3 (3) ATM ATM · Alfamidi Raya Tengah 2, Jalan Raya Tengah No.19, Gedong, Pasar Rebo, Jl. Raya Tengah No.22, RT.8/RW.8 Buka 24 jam Buka 24 jam Buka 24 jam · (021) 1500046",-6.2993861,106.8594563
DKI Jakarta,Kota Administrasi Jakarta Selatan,Jagakarsa,ATM BNI ALFAMIDI H.HASAN - RT.4/RW.9,ATM BNI ALFAMIDI H.HASAN,RT.4/RW.9,Tidak ada ulasan Bank Bank · RT.4/RW.9 Buka 24 jam Buka 24 jam Buka 24 jam · (021) 57899999,-6.3266646,106.8504645
DKI Jakarta,Kota Administrasi Jakarta Selatan,Jagakarsa,ATM BNI PLAZA PP - Jl. TB Simatupang No.57 Lt. D,ATM BNI PLAZA PP,Jl. TB Simatupang No.57 Lt. D,"5,0 (1) ATM ATM · Plaza PP, Jl. TB Simatupang No.57 Lt. D Buka 24 jam Buka 24 jam Buka 24 jam · (021) 57899999",-6.3026086,106.8577934
DKI Jakarta,Kota Administrasi Jakarta Selatan,Jagakarsa,"BNI 46 Universitas Pancasila - Jl. Raya Lenteng Agung No.32 1, RT.7/RW.3",BNI 46 Universitas Pancasila,"Jl. Raya Lenteng Agung No.32 1, RT.7/RW.3","4,4 (146) Bank Bank · Jl. Raya Lenteng Agung No.32 1, RT.7/RW.3 Tutup ⋅ Buka Sen pukul 08.00 · (021) 7765454",-6.3416175,106.8331752
DKI Jakarta,Kota Administrasi Jakarta Selatan,Jagakarsa,ATM Bank BNI - Jl. K.H.M. Usman No.79,ATM Bank BNI,Jl. K.H.M. Usman No.79,"5,0 (1) ATM ATM · Jl. K.H.M. Usman No.79",-6.3636015,106.8157274
DKI Jakarta,Kota Administrasi Jakarta Selatan,Jagakarsa,"ATM BNI RS. MARINIR CILANDAK - Jl. Raya Cilandak KKO No.Raya 3, RT.3/RW.5",ATM BNI RS. MARINIR CILANDAK,"Jl. Raya Cilandak KKO No.Raya 3, RT.3/RW.5","5,0 (1) ATM ATM · Jl. Raya Cilandak KKO No.Raya 3, RT.3/RW.5 (021) 57899999 (021) 57899999",-6.3053295,106.813687
DKI Jakarta,Kota Administrasi Jakarta Selatan,Jagakarsa,"ATM BNI MARKAS CILANDAK KKO 1 - Jl. Raya Cilandak KKO No.Kel, RT.12/RW.5",ATM BNI MARKAS CILANDAK KKO 1,"Jl. Raya Cilandak KKO No.Kel, RT.12/RW.5","3,0 (2) Bank Bank · Jl. Raya Cilandak KKO No.Kel, RT.12/RW.5 (021) 57899999 (021) 57899999",-6.3037035,106.8111922
DKI Jakarta,Kota Administrasi Jakarta Selatan,Jagakarsa,"ATM BNI Lottemart Pasar Rebo - Jl. TB Simatupang No.64 7, RT.7/RW.3",ATM BNI Lottemart Pasar Rebo,"Jl. TB Simatupang No.64 7, RT.7/RW.3","4,0 (4) ATM ATM · Jl. TB Simatupang No.64 7, RT.7/RW.3 Buka ⋅ Tutup pukul 22.00 · (021) 57899999",-6.3093278,106.8672065
DKI Jakarta,Kota Administrasi Jakarta Selatan,Jagakarsa,ATM BNI - Jl. Margonda No.501,ATM BNI,Jl. Margonda No.501,"5,0 (1) ATM ATM · Jl. Margonda No.501 Buka ⋅ Tutup pukul 22.00 · 1 500 046",-6.3608442,106.8335475
DKI Jakarta,Kota Administrasi Jakarta Selatan,Jagakarsa,"ATM BNI 50.000 - Jl. H. Hasan, RT.4/RW.9",ATM BNI 50.000,"Jl. H. Hasan, RT.4/RW.9","Tidak ada ulasan ATM ATM · MVF2+J2P, Jl. H. Hasan, RT.4/RW.9 Buka ⋅ Tutup pukul 01.00",-6.3259244,106.8500843
DKI Jakarta,Kota Administrasi Jakarta Selatan,Jagakarsa,ATM BNI Taman Wisata Ceria - Jalan Kukusan,ATM BNI Taman Wisata Ceria,Jalan Kukusan,"4,8 (4) ATM ATM · Jalan Kukusan Buka sekarang Buka sekarang Buka sekarang · 1 500 046",-6.3666768,106.8135075
DKI Jakarta,Kota Administrasi Jakarta Selatan,Jagakarsa,ATM BNI FISIP UI,ATM BNI FISIP UI,,"3,3 (3) ATM ATM Buka 24 jam Buka 24 jam Buka 24 jam · (021) 57899999",-6.3631067,106.8301359
DKI Jakarta,Kota Administrasi Jakarta Selatan,Jagakarsa,ATM BNI RS.CIJANTUNG - RT.4/RW.6,ATM BNI RS.CIJANTUNG,RT.4/RW.6,"4,0 (1) Bank Bank · RT.4/RW.6 (021) 57899999 (021) 57899999",-6.307328,106.858901
DKI Jakarta,Kota Administrasi Jakarta Selatan,Kebayoran Baru,"ATM BNI Non Tunai Pasar Mayestik - Jl. Kyai Maja No.75 76, RT.4/RW.8",ATM BNI Non Tunai Pasar Mayestik,"Jl. Kyai Maja No.75 76, RT.4/RW.8","4,3 (3) ATM ATM · Jl. Kyai Maja No.75 76, RT.4/RW.8 Buka 24 jam Buka 24 jam Buka 24 jam · (021) 57899999",-6.2412399,106.7911399
DKI Jakarta,Kota Administrasi Jakarta Selatan,Kebayoran Baru,"ATM BNI KCU Melawai Raya - Jl. Melawai Raya No .1, Kebayoran Baru, Jl. Melawai Raya Jl. Iskandarsyah II No.1, RT.3/RW.5",ATM BNI KCU Melawai Raya,"Jl. Melawai Raya No .1, Kebayoran Baru, Jl. Melawai Raya Jl. Iskandarsyah II No.1, RT.3/RW.5","5,0 (2) ATM ATM · Bank Bni Kcu Melawai Raya, Jl. Melawai Raya No .1, Kebayoran Baru, Jl. Melawai Raya Jl. Iskandarsyah II No.1, RT.3/RW.5 Buka 24 jam Buka 24 jam Buka 24 jam · (021) 1500046",-6.2460543,106.8036533
DKI Jakarta,Kota Administrasi Jakarta Selatan,Kebayoran Baru,"ATM BNI PASAR RAYA SEIBU 1 - Jl. Iskandarsyah Raya No.2 3, RT.3/RW.1",ATM BNI PASAR RAYA SEIBU 1,"Jl. Iskandarsyah Raya No.2 3, RT.3/RW.1","1,0 (1) ATM ATM · Jl. Iskandarsyah Raya No.2 3, RT.3/RW.1 Buka ⋅ Tutup pukul 22.00 · (021) 57899999",-6.244726,106.80338
DKI Jakarta,Kota Administrasi Jakarta Selatan,Kebayoran Baru,"ATM BNI PST.PERTOKOAN RADIO DALAM - Jl. Hidup Baru No.1 10, RT.5/RW.4",ATM BNI PST.PERTOKOAN RADIO DALAM,"Jl. Hidup Baru No.1 10, RT.5/RW.4","4,0 (1) ATM ATM · Jl. Hidup Baru No.1 10, RT.5/RW.4 (021) 57899999 (021) 57899999",-6.2550786,106.7903612
DKI Jakarta,Kota Administrasi Jakarta Selatan,Kebayoran Baru,"ATM BNI - Jl. Radio Dalam Raya No.7, RT.7/RW.4",ATM BNI,"Jl. Radio Dalam Raya No.7, RT.7/RW.4","2,0 (1) ATM ATM · Jl. Radio Dalam Raya No.7, RT.7/RW.4 Buka 24 jam Buka 24 jam Buka 24 jam",-6.2521264,106.7912313
DKI Jakarta,Kota Administrasi Jakarta Selatan,Kebayoran Baru,"ATM BNI KK CIPETE - Jl. Fatmawati, RT.1/RW.5",ATM BNI KK CIPETE,"Jl. Fatmawati, RT.1/RW.5","5,0 (1) ATM ATM · Jl. Fatmawati, RT.1/RW.5 Buka 24 jam Buka 24 jam Buka 24 jam · (021) 57899999",-6.263477,106.798494
DKI Jakarta,Kota Administrasi Jakarta Selatan,Kebayoran Baru,"ATM BNI INDOMARET JL. HJ. NAWI - Jl. H. Nawi, RT.7/RW.7",ATM BNI INDOMARET JL. HJ. NAWI,"Jl. H. Nawi, RT.7/RW.7","3,0 (3) ATM ATM · Jl. H. Nawi, RT.7/RW.7 Buka 24 jam Buka 24 jam Buka 24 jam · (021) 57899999",-6.2637121,106.7954533
DKI Jakarta,Kota Administrasi Jakarta Selatan,Kebayoran Baru,"ATM BNI SPBU GANDARIA - Jl. Kapten Tendean No.1 1, RT.1/RW.9",ATM BNI SPBU GANDARIA,"Jl. Kapten Tendean No.1 1, RT.1/RW.9","3,0 (1) ATM ATM · Jl. Kapten Tendean No.1 1, RT.1/RW.9 Buka 24 jam Buka 24 jam Buka 24 jam",-6.2440709,106.7880336
DKI Jakarta,Kota Administrasi Jakarta Selatan,Kebayoran Baru,"ATM BNI GEDUNG BINA MARGA PU - Jl. Baru II No.20, RT.2/RW.1",ATM BNI GEDUNG BINA MARGA PU,"Jl. Baru II No.20, RT.2/RW.1","4,0 (1) ATM ATM · Jl. Baru II No.20, RT.2/RW.1 Buka ⋅ Tutup pukul 20.00 · (021) 57899999",-6.236562,106.801399
DKI Jakarta,Kota Administrasi Jakarta Selatan,Kebayoran Baru,ATM BNI - RT.14/RW.3,ATM BNI,RT.14/RW.3,"2,0 (1) ATM ATM · Ps. Mayestik, Tebah 5 No.14 Lantai 2, RT.14/RW.3 Buka ⋅ Tutup pukul 21.00",-6.2405474,106.7909
DKI Jakarta,Kota Administrasi Jakarta Selatan,Kebayoran Baru,"ATM BNI BLOK M PLAZA 3 - Jl. Bulungan, RT.6/RW.6",ATM BNI BLOK M PLAZA 3,"Jl. Bulungan, RT.6/RW.6","5,0 (1) ATM ATM · Jl. Bulungan, RT.6/RW.6 Buka 24 jam Buka 24 jam Buka 24 jam · (021) 57899999",-6.2444968,106.7974857
DKI Jakarta,Kota Administrasi Jakarta Selatan,Kebayoran Baru,"ATM BNI - Jl. Falatehan I No.16 2, RT.2/RW.1",ATM BNI,"Jl. Falatehan I No.16 2, RT.2/RW.1","Tidak ada ulasan ATM ATM · Jl. Falatehan I No.16 2, RT.2/RW.1 Buka 24 jam Buka 24 jam Buka 24 jam",-6.2423251,106.8013686
DKI Jakarta,Kota Administrasi Jakarta Selatan,Kebayoran Baru,"ATM BNI - Jl. KH. Ahmad Dahlan Kby. No.14 2, RT.2/RW.1",ATM BNI,"Jl. KH. Ahmad Dahlan Kby. No.14 2, RT.2/RW.1","4,5 (2) ATM ATM · Jl. KH. Ahmad Dahlan Kby. No.14 2, RT.2/RW.1",-6.2442729,106.7916677
DKI Jakarta,Kota Administrasi Jakarta Selatan,Kebayoran Baru,"ATM BNI - Jl. Melawai X No.8 3, RT.3/RW.1",ATM BNI,"Jl. Melawai X No.8 3, RT.3/RW.1","Tidak ada ulasan ATM ATM · Jl. Melawai X No.8 3, RT.3/RW.1 Buka 24 jam Buka 24 jam Buka 24 jam",-6.2439309,106.7985804
DKI Jakarta,Kota Administrasi Jakarta Selatan,Kebayoran Baru,"ATM BNI KCU PASAR MAYESTIK - Jl. Kyai Maja No.75, RT.1/RW.3",ATM BNI KCU PASAR MAYESTIK,"Jl. Kyai Maja No.75, RT.1/RW.3","2,0 (1) ATM ATM · BNI Mayestik, Jl. Kyai Maja No.75, RT.1/RW.3 Buka sekarang Buka sekarang Buka sekarang · (021) 57899999",-6.2417762,106.7907168
DKI Jakarta,Kota Administrasi Jakarta Selatan,Kebayoran Baru,"ATM BNI KLN GANDARIA CITY - Jalan Sultan Iskandar Muda No.8, Mall Gandaria City, RT.10/RW.6",ATM BNI KLN GANDARIA CITY,"Jalan Sultan Iskandar Muda No.8, Mall Gandaria City, RT.10/RW.6","5,0 (1) ATM ATM · Jalan Sultan Iskandar Muda No.8, Mall Gandaria City, RT.10/RW.6 Buka 24 jam Buka 24 jam Buka 24 jam · (021) 57899999",-6.2439416,106.7841751
DKI Jakarta,Kota Administrasi Jakarta Selatan,Kebayoran Baru,"ATM BNI GEDUNG VICTORIA - Jl. Iskandarsyah Raya No.Lt.8, RT.6/RW.2",ATM BNI GEDUNG VICTORIA,"Jl. Iskandarsyah Raya No.Lt.8, RT.6/RW.2","Tidak ada ulasan ATM ATM · Jl. Iskandarsyah Raya No.Lt.8, RT.6/RW.2 Buka 24 jam Buka 24 jam Buka 24 jam · (021) 57899999",-6.24201,106.802715
DKI Jakarta,Kota Administrasi Jakarta Selatan,Kebayoran Baru,"ATM BNI - Jl. Petogogan II No.45 5, RT.5/RW.6",ATM BNI,"Jl. Petogogan II No.45 5, RT.5/RW.6","Tidak ada ulasan ATM ATM · Jl. Petogogan II No.45 5, RT.5/RW.6 Buka 24 jam Buka 24 jam Buka 24 jam",-6.2543862,106.794531
DKI Jakarta,Kota Administrasi Jakarta Selatan,Kebayoran Baru,"ATM BNI KK PAKUBUWONO-NON TUNAI - Jl. Pakubuwono VI No.6, RT.3/RW.3",ATM BNI KK PAKUBUWONO-NON TUNAI,"Jl. Pakubuwono VI No.6, RT.3/RW.3","Tidak ada ulasan ATM ATM · Jl. Pakubuwono VI No.6, RT.3/RW.3 Buka 24 jam Buka 24 jam Buka 24 jam · (021) 57899999",-6.235728,106.790743
DKI Jakarta,Kota Administrasi Jakarta Selatan,Kebayoran Baru,"ATM BNI - Jl. Melawai Raya No.4, RT.4/RW.6",ATM BNI,"Jl. Melawai Raya No.4, RT.4/RW.6","5,0 (1) ATM ATM · Jl. Melawai Raya No.4, RT.4/RW.6 1 500 046 1 500 046",-6.2455904,106.796302
DKI Jakarta,Kota Administrasi Jakarta Selatan,Kebayoran Baru,"ATM BNI MABES POLRI - Jl. Trunojoyo No.3 2, RT.2/RW.1",ATM BNI MABES POLRI,"Jl. Trunojoyo No.3 2, RT.2/RW.1","5,0 (1) ATM ATM · Jl. Trunojoyo No.3 2, RT.2/RW.1 Buka 24 jam Buka 24 jam Buka 24 jam · (021) 57899999",-6.2388386,106.8046125
DKI Jakarta,Kota Administrasi Jakarta Selatan,Kebayoran Baru,"ATM BNI - Jl. Darmawangsa VI No.5 Lt.Dasar, RT.5/RW.1",ATM BNI,"Jl. Darmawangsa VI No.5 Lt.Dasar, RT.5/RW.1","Tidak ada ulasan ATM ATM · The Darmawangsa Square, Jl. Darmawangsa VI No.5 Lt.Dasar, RT.5/RW.1 Buka ⋅ Tutup pukul 22.00 · (021) 57899999",-6.2534808,106.801495
DKI Jakarta,Kota Administrasi Jakarta Selatan,Kebayoran Baru,"ATM BNI KLN MELAWAI - Jl. Melawai Raya No.75 3, RT.3/RW.1",ATM BNI KLN MELAWAI,"Jl. Melawai Raya No.75 3, RT.3/RW.1","3,0 (2) ATM ATM · Jl. Melawai Raya No.75 3, RT.3/RW.1 (021) 57899999 (021) 57899999",-6.2457269,106.8015116
DKI Jakarta,Kota Administrasi Jakarta Selatan,Kebayoran Baru,"ATM BNI - Jl. Kyai Maja, RT.4/RW.8",ATM BNI,"Jl. Kyai Maja, RT.4/RW.8","4,0 (1) ATM ATM · QQ6V+4FJ, Rumah Sakit Pusat Pertamina, Jl. Kyai Maja, RT.4/RW.8 Buka 24 jam Buka 24 jam Buka 24 jam",-6.2396569,106.7936476
DKI Jakarta,Kota Administrasi Jakarta Selatan,Kebayoran Baru,"ATM BNI BRAWIJAYA WOMEN HOSPITAL - Jl. Taman Brawijaya No.1, RT.3/RW.3",ATM BNI BRAWIJAYA WOMEN HOSPITAL,"Jl. Taman Brawijaya No.1, RT.3/RW.3","3,0 (2) ATM ATM · Jl. Taman Brawijaya No.1, RT.3/RW.3 Buka 24 jam Buka 24 jam Buka 24 jam",-6.2574112,106.8075451
DKI Jakarta,Kota Administrasi Jakarta Selatan,Kebayoran Baru,"ATM BNI KLN BLOK M - Jl. Sultan Hasanudin, RT.6/RW.2",ATM BNI KLN BLOK M,"Jl. Sultan Hasanudin, RT.6/RW.2","Tidak ada ulasan ATM ATM · Jl. Sultan Hasanudin, RT.6/RW.2 Buka 24 jam Buka 24 jam Buka 24 jam · (021) 57899999",-6.2431253,106.8028921
DKI Jakarta,Kota Administrasi Jakarta Selatan,Kebayoran Baru,"ATM BNI Senopati Office 8 - Jalan Raya Senopati No.8D, Lantai Dasar Office Resident 8, Senayan, Kebayoran Baru, RT.8/RW.3",ATM BNI Senopati Office 8,"Jalan Raya Senopati No.8D, Lantai Dasar Office Resident 8, Senayan, Kebayoran Baru, RT.8/RW.3","Tidak ada ulasan ATM ATM · Jalan Raya Senopati No.8D, Lantai Dasar Office Resident 8, Senayan, Kebayoran Baru, RT.8/RW.3 Buka 24 jam Buka 24 jam Buka 24 jam · (021) 500046",-6.2291894,106.8058035
DKI Jakarta,Kota Administrasi Jakarta Selatan,Kebayoran Baru,"ATM BNI RM. TERAS GANDARIA - Jl. Duku Raya, RT.10/RW.6",ATM BNI RM. TERAS GANDARIA,"Jl. Duku Raya, RT.10/RW.6","Tidak ada ulasan ATM ATM · Jl. Duku Raya, RT.10/RW.6 Buka 24 jam Buka 24 jam Buka 24 jam · (021) 57899999",-6.2439416,106.7841751
DKI Jakarta,Kota Administrasi Jakarta Selatan,Kebayoran Baru,"ATM BNI KLN BLOK M - Jl. Sultan Hasanuddin Dalam, RT.6/RW.6",ATM BNI KLN BLOK M,"Jl. Sultan Hasanuddin Dalam, RT.6/RW.6","5,0 (1) ATM ATM · Jl. Sultan Hasanuddin Dalam, RT.6/RW.6 (021) 57899999 (021) 57899999",-6.2441079,106.7975004
DKI Jakarta,Kota Administrasi Jakarta Selatan,Kebayoran Baru,"ATM BNI RM Teras Gandaria - Jl. KH. Moh. Syafi'i Hadzami No.5 5, RT.5/RW.9",ATM BNI RM Teras Gandaria,"Jl. KH. Moh. Syafi'i Hadzami No.5 5, RT.5/RW.9","Tidak ada ulasan ATM ATM · Jl. KH. Moh. Syafi'i Hadzami No.5 5, RT.5/RW.9 Buka 24 jam Buka 24 jam Buka 24 jam",-6.2458393,106.7848533
DKI Jakarta,Kota Administrasi Jakarta Selatan,Kebayoran Baru,"ATM BNI Indomaret Haji Jian - Jl. H. Jian No.81 1, RT.1/RW.7",ATM BNI Indomaret Haji Jian,"Jl. H. Jian No.81 1, RT.1/RW.7","Tidak ada ulasan ATM ATM · Jl. H. Jian No.81 1, RT.1/RW.7 Buka 24 jam Buka 24 jam Buka 24 jam",-6.2621318,106.8056654
DKI Jakarta,Kota Administrasi Jakarta Selatan,Kebayoran Baru,"ATM BNI KK PAKUBUWONO - Jl. Pakubuwono VI No.6, RT.3/RW.3",ATM BNI KK PAKUBUWONO,"Jl. Pakubuwono VI No.6, RT.3/RW.3","Tidak ada ulasan ATM ATM · Jl. Pakubuwono VI No.6, RT.3/RW.3 Buka 24 jam Buka 24 jam Buka 24 jam · (021) 500046",-6.235728,106.790743
DKI Jakarta,Kota Administrasi Jakarta Selatan,Kebayoran Baru,ATM BNI KLN WIJAYA GRAND CENTER-NON TUNAI - RT.6/RW.1,ATM BNI KLN WIJAYA GRAND CENTER-NON TUNAI,RT.6/RW.1,"Tidak ada ulasan ATM ATM · Grand Wijaya Blok F Kebayoran, RT.6/RW.1 (021) 57899999 (021) 57899999",-6.2536598,106.8000806
DKI Jakarta,Kota Administrasi Jakarta Selatan,Kebayoran Baru,"ATM BNI - Jl. Pattimura, RT.2/RW.1",ATM BNI,"Jl. Pattimura, RT.2/RW.1","Tidak ada ulasan ATM ATM · Kementerian Pekerjaan Umum, Kementerian Pekerjaan Umum Indonesia, Jalan Pattimura No.20, Kebayoran Baru, Jl. Pattimura, RT.2/RW.1 Buka 24 jam Buka 24 jam Buka 24 jam · (021) 57899999",-6.2365582,106.8004373
DKI Jakarta,Kota Administrasi Jakarta Selatan,Kebayoran Baru,"ATM BNI YANMA POLRI (MABES) - Jl. Trunojoyo No.3 2, RT.2/RW.1",ATM BNI YANMA POLRI (MABES),"Jl. Trunojoyo No.3 2, RT.2/RW.1","Tidak ada ulasan ATM ATM · Jl. Trunojoyo No.3 2, RT.2/RW.1 Buka 24 jam Buka 24 jam Buka 24 jam · (021) 57899999",-6.2387081,106.8013486
DKI Jakarta,Kota Administrasi Jakarta Selatan,Kebayoran Baru,ATM Link BNI - RT.6/RW.5,ATM Link BNI,RT.6/RW.5,"Tidak ada ulasan ATM ATM · 6, RT.6/RW.5 Buka 24 jam Buka 24 jam Buka 24 jam",-6.2612311,106.7968231
DKI Jakarta,Kota Administrasi Jakarta Selatan,Kebayoran Baru,"ATM BNI KLN Duta Mas Fatmawati - Jl. RS. Fatmawati Raya Blok Husen No.24, RT.5/RW.9",ATM BNI KLN Duta Mas Fatmawati,"Jl. RS. Fatmawati Raya Blok Husen No.24, RT.5/RW.9","Tidak ada ulasan ATM ATM · Jl. RS. Fatmawati Raya Blok Husen No.24, RT.5/RW.9 Buka 24 jam Buka 24 jam Buka 24 jam",-6.2616224,106.7968668
DKI Jakarta,Kota Administrasi Jakarta Selatan,Kebayoran Baru,"ATM BNI - Jl. Abdul Majid Raya No.33 1, RT.1/RW.2",ATM BNI,"Jl. Abdul Majid Raya No.33 1, RT.1/RW.2","2,0 (1) ATM ATM · Jl. Abdul Majid Raya No.33 1, RT.1/RW.2 Buka 24 jam Buka 24 jam Buka 24 jam · (021) 1500046",-6.2670828,106.8020502
DKI Jakarta,Kota Administrasi Jakarta Selatan,Kebayoran Baru,"BNI - Jl. Melawai 9 No.48 3, RT.3/RW.1",BNI,"Jl. Melawai 9 No.48 3, RT.3/RW.1","Tidak ada ulasan ATM ATM · Jl. Melawai 9 No.48 3, RT.3/RW.1 (021) 2700947 (021) 2700947",-6.2449268,106.8011764
DKI Jakarta,Kota Administrasi Jakarta Selatan,Kebayoran Baru,"ATM BNI - Jalan Kebayoran Lama, RT.2/RW.1, Kebayoran Lama Utara, Kebayoran Lama, RT.3/RW.1",ATM BNI,"Jalan Kebayoran Lama, RT.2/RW.1, Kebayoran Lama Utara, Kebayoran Lama, RT.3/RW.1","5,0 (1) ATM ATM · Pasar Kebayoran Lama, Jalan Kebayoran Lama, RT.2/RW.1, Kebayoran Lama Utara, Kebayoran Lama, RT.3/RW.1 Buka 24 jam Buka 24 jam Buka 24 jam · (021) 1500046",-6.236931,106.7808936
DKI Jakarta,Kota Administrasi Jakarta Selatan,Kebayoran Baru,Bni - RT.1/RW.16,Bni,RT.1/RW.16,"5,0 (1) ATM ATM · PQJM+HWP, RT.1/RW.16 1 500 046 1 500 046",-6.2685474,106.7848178
DKI Jakarta,Kota Administrasi Jakarta Selatan,Kebayoran Baru,"ATM BNI AYAM BULUNGAN - Jl. Bulungan, RT.1/RW.6",ATM BNI AYAM BULUNGAN,"Jl. Bulungan, RT.1/RW.6","4,0 (1) Bank Bank · Jl. Bulungan, RT.1/RW.6 (021) 57899999 (021) 57899999",-6.2441139,106.7967833
DKI Jakarta,Kota Administrasi Jakarta Selatan,Kebayoran Baru,"ATM BNI KK PASAR MAYESTIK(KK)-CDM - Jl. Tebah Raya No.3, RT.13/RW.3",ATM BNI KK PASAR MAYESTIK(KK)-CDM,"Jl. Tebah Raya No.3, RT.13/RW.3","4,2 (14) ATM ATM · Jl. Tebah Raya No.3, RT.13/RW.3 Tutup ⋅ Buka Sen pukul 08.00 · (021) 57899999",-6.2393882,106.7916083
DKI Jakarta,Kota Administrasi Jakarta Selatan,Kebayoran Baru,"ATM BNI - Jl. RS. Fatmawati Raya, RT.6/RW.5",ATM BNI,"Jl. RS. Fatmawati Raya, RT.6/RW.5","3,5 (2) ATM ATM · PQJW+QXQ, Jl. RS. Fatmawati Raya, RT.6/RW.5 Buka 24 jam Buka 24 jam Buka 24 jam",-6.2680377,106.7974991
DKI Jakarta,Kota Administrasi Jakarta Selatan,Kebayoran Baru,"ATM BNI RS. PERTAMINA - Jl. Kyai Maja No.43 4, RT.4/RW.8",ATM BNI RS. PERTAMINA,"Jl. Kyai Maja No.43 4, RT.4/RW.8","5,0 (1) ATM ATM · Jl. Kyai Maja No.43 4, RT.4/RW.8 (021) 57899999 (021) 57899999",-6.2403204,106.7930579
DKI Jakarta,Kota Administrasi Jakarta Selatan,Kebayoran Baru,"ATM BNI - Jl. Gandaria 1 No.27 1, RT.1/RW.9",ATM BNI,"Jl. Gandaria 1 No.27 1, RT.1/RW.9","Tidak ada ulasan ATM ATM · Jl. Gandaria 1 No.27 1, RT.1/RW.9",-6.244245,106.7881269
DKI Jakarta,Kota Administrasi Jakarta Selatan,Kebayoran Baru,"ATM BNI KLN GANDARIA - Jl. Gandaria Tengah III No.21 4, RT.4/RW.3",ATM BNI KLN GANDARIA,"Jl. Gandaria Tengah III No.21 4, RT.4/RW.3","4,6 (40) ATM ATM · Jl. Gandaria Tengah III No.21 4, RT.4/RW.3 Tutup ⋅ Buka Sen pukul 08.00 · (021) 57899999",-6.2466379,106.7902205
DKI Jakarta,Kota Administrasi Jakarta Selatan,Kebayoran Baru,ATM BNI Kementerian ATR/BPN - RT.2/RW.1,ATM BNI Kementerian ATR/BPN,RT.2/RW.1,"Tidak ada ulasan ATM ATM · QQ6X+MF2, Jakarta Selatan, RT.2/RW.1 Buka ⋅ Tutup pukul 21.30",-6.238359,106.7986498
DKI Jakarta,Kota Administrasi Jakarta Selatan,Kebayoran Baru,"ATM BNI - Jl. RS. Fatmawati Raya, RT.3/RW.2",ATM BNI,"Jl. RS. Fatmawati Raya, RT.3/RW.2","Tidak ada ulasan ATM ATM · Duta Mas Blok B, No.39, Jl. RS. Fatmawati Raya, RT.3/RW.2 Buka 24 jam Buka 24 jam Buka 24 jam · (021) 500046",-6.264141,106.7965848
DKI Jakarta,Kota Administrasi Jakarta Selatan,Kebayoran Baru,"Bank Negara Indonesia (BNI) - Jl. Bulungan No.76, RT.6/RW.6",Bank Negara Indonesia (BNI),"Jl. Bulungan No.76, RT.6/RW.6","Tidak ada ulasan ATM ATM · Jl. Bulungan No.76, RT.6/RW.6 (021) 7209288 (021) 7209288",-6.2443298,106.7976647
DKI Jakarta,Kota Administrasi Jakarta Selatan,Kebayoran Baru,"ATM BNI - Jl. Raya Kby. Lama No.17A 1, RT.1/RW.11",ATM BNI,"Jl. Raya Kby. Lama No.17A 1, RT.1/RW.11","3,7 (3) ATM ATM · Jl. Raya Kby. Lama No.17A 1, RT.1/RW.11 Buka 24 jam Buka 24 jam Buka 24 jam",-6.2319769,106.7800277
DKI Jakarta,Kota Administrasi Jakarta Selatan,Kebayoran Baru,ATM BNI KK KEMANG RAYA - RT.5/RW.7,ATM BNI KK KEMANG RAYA,RT.5/RW.7,"Tidak ada ulasan ATM ATM · 5, RT.5/RW.7 (021) 57899999 (021) 57899999",-6.2512243,106.8030201
DKI Jakarta,Kota Administrasi Jakarta Selatan,Kebayoran Baru,"ATM BNI BLOK M SQUARE 3 - Jl. Melawai Raya No.3, RT.3/RW.1",ATM BNI BLOK M SQUARE 3,"Jl. Melawai Raya No.3, RT.3/RW.1","Tidak ada ulasan ATM ATM · Bl. M Square, Jl. Melawai Raya No.3, RT.3/RW.1 (021) 57899999 (021) 57899999",-6.245647,106.8001601
DKI Jakarta,Kota Administrasi Jakarta Selatan,Kebayoran Baru,"ATM BNI KK SANTA-NON TUNAI - Jl. Wolter Monginsidi No.64 B, RT.2/RW.4",ATM BNI KK SANTA-NON TUNAI,"Jl. Wolter Monginsidi No.64 B, RT.2/RW.4","Tidak ada ulasan ATM ATM · Jl. Wolter Monginsidi No.64 B, RT.2/RW.4 (021) 57899999 (021) 57899999",-6.2393077,106.8113739
DKI Jakarta,Kota Administrasi Jakarta Selatan,Kebayoran Baru,"ATM BNI APARTEMEN PAKUBUWONO - Jl. Pakubuwono VI Jl. Kebayoran Baru No.68 8, RT.3/RW.1",ATM BNI APARTEMEN PAKUBUWONO,"Jl. Pakubuwono VI Jl. Kebayoran Baru No.68 8, RT.3/RW.1","5,0 (1) ATM ATM · Jl. Pakubuwono VI Jl. Kebayoran Baru No.68 8, RT.3/RW.1 (021) 57899999 (021) 57899999",-6.2393631,106.7837498
DKI Jakarta,Kota Administrasi Jakarta Selatan,Kebayoran Baru,"ATM BRI & BNI - Jl. Komp. Kostrad No.2, RT.1/RW.7",ATM BRI & BNI,"Jl. Komp. Kostrad No.2, RT.1/RW.7","5,0 (1) ATM ATM · JL. Darma Putra Raya, Jl. Komp. Kostrad No.2, RT.1/RW.7 Buka 24 jam Buka 24 jam Buka 24 jam",-6.2546648,106.7837326
DKI Jakarta,Kota Administrasi Jakarta Selatan,Kebayoran Baru,"ATM BNI Syariah - Jl. Panglima Polim No.1, RT.2/RW.1",ATM BNI Syariah,"Jl. Panglima Polim No.1, RT.2/RW.1","Tidak ada ulasan ATM ATM · Jl. Panglima Polim No.1, RT.2/RW.1 Buka 24 jam Buka 24 jam Buka 24 jam",-6.2431588,106.8000628
DKI Jakarta,Kota Administrasi Jakarta Selatan,Kebayoran Baru,"ATM BNI - Jl. Raya Kby. Lama No.86 1, RT.1/RW.11",ATM BNI,"Jl. Raya Kby. Lama No.86 1, RT.1/RW.11","4,5 (2) ATM ATM ·   · Jl. Raya Kby. Lama No.86 1, RT.1/RW.11 Buka 24 jam Buka 24 jam Buka 24 jam · (021) 500046",-6.232033,106.780041
DKI Jakarta,Kota Administrasi Jakarta Selatan,Kebayoran Baru,ATM BNI SPBU PONDOK INDAH - RT.1/RW.16,ATM BNI SPBU PONDOK INDAH,RT.1/RW.16,"2,5 (4) ATM ATM · RT.1/RW.16 Buka 24 jam Buka 24 jam Buka 24 jam · (021) 57899999",-6.2590872,106.781976
DKI Jakarta,Kota Administrasi Jakarta Selatan,Kebayoran Baru,"ATM BNI - Jl. Gandaria 1, RT.7/RW.2",ATM BNI,"Jl. Gandaria 1, RT.7/RW.2","4,5 (2) ATM ATM · QQ5Q+678, RS. Muhammadiyah, Jl. Gandaria 1, RT.7/RW.2 (021) 500046 (021) 500046",-6.2419578,106.7882162
DKI Jakarta,Kota Administrasi Jakarta Selatan,Kebayoran Baru,ATM BNI CIRCLE K CIKAJANG - RT.13/RW.6,ATM BNI CIRCLE K CIKAJANG,RT.13/RW.6,Tidak ada ulasan ATM ATM · RT.13/RW.6 (021) 57899999 (021) 57899999,-6.2423923,106.8098053
DKI Jakarta,Kota Administrasi Jakarta Selatan,Kebayoran Baru,"ATM BNI UNIV. DR. MOESTOPO - Jl. Raya Kebayoran Lama, RT.1/RW.3",ATM BNI UNIV. DR. MOESTOPO,"Jl. Raya Kebayoran Lama, RT.1/RW.3","5,0 (1) ATM ATM · Jl. Raya Kebayoran Lama, RT.1/RW.3 Buka 24 jam Buka 24 jam Buka 24 jam · (021) 57899999",-6.2290943,106.7962751
DKI Jakarta,Kota Administrasi Jakarta Selatan,Kebayoran Baru,ATM BNI SCBD Drive Thru - RT.1/RW.3,ATM BNI SCBD Drive Thru,RT.1/RW.3,"4,0 (2) ATM ATM · JL Jenderal Sudirman, Kavling 52-53, RT.1/RW.3 Buka 24 jam Buka 24 jam Buka 24 jam",-6.2208303,106.8090779
DKI Jakarta,Kota Administrasi Jakarta Selatan,Kebayoran Baru,"ATM BNI PLAZA ASIA - Jl. Jenderal Sudirman, RT.5/RW.3",ATM BNI PLAZA ASIA,"Jl. Jenderal Sudirman, RT.5/RW.3","Tidak ada ulasan ATM ATM · Jl. Jenderal Sudirman, RT.5/RW.3 Buka 24 jam Buka 24 jam Buka 24 jam · (021) 57899999",-6.225465,106.804999
DKI Jakarta,Kota Administrasi Jakarta Selatan,Kebayoran Baru,"ATM Bank Negara Indonesia (BNI) - Jl. Jenderal Sudirman, Kav. 52-53, Senayan, Kebayoran Baru, RT.5/RW.3",ATM Bank Negara Indonesia (BNI),"Jl. Jenderal Sudirman, Kav. 52-53, Senayan, Kebayoran Baru, RT.5/RW.3","Tidak ada ulasan ATM ATM · Gedung Jakarta Stock Exchange LL Tower,, Jl. Jenderal Sudirman, Kav. 52-53, Senayan, Kebayoran Baru, RT.5/RW.3 Buka 24 jam Buka 24 jam Buka 24 jam · (021) 1500046",-6.2232344,106.8086566
DKI Jakarta,Kota Administrasi Jakarta Selatan,Kebayoran Baru,"ATM BNI KLN PLN Pusat - Jalan Trunojoyo Blok M I No.135, RT.6/RW.2",ATM BNI KLN PLN Pusat,"Jalan Trunojoyo Blok M I No.135, RT.6/RW.2","4,0 (1) ATM ATM · Lantai 1, PT. PLN (Persero) Kantor Pusat, Jalan Trunojoyo Blok M I No.135, RT.6/RW.2 Tutup ⋅ Buka Sen pukul 08.00 · (021) 57899999",-6.2405387,106.80331
DKI Jakarta,Kota Administrasi Jakarta Selatan,Kebayoran Baru,"ATM BNI AJB BUMIPUTERA - Jl. Wolter Monginsidi, RT.1/RW.1",ATM BNI AJB BUMIPUTERA,"Jl. Wolter Monginsidi, RT.1/RW.1","Tidak ada ulasan ATM ATM · Jl. Wolter Monginsidi, RT.1/RW.1 (021) 57899999 (021) 57899999",-6.2389813,106.8099064
DKI Jakarta,Kota Administrasi Jakarta Selatan,Kebayoran Baru,"ATM BNI - Jl. Wolter Monginsidi No.2 Kav. 12-14, RT.2/RW.4",ATM BNI,"Jl. Wolter Monginsidi No.2 Kav. 12-14, RT.2/RW.4","Tidak ada ulasan ATM ATM · Jl. Wolter Monginsidi No.2 Kav. 12-14, RT.2/RW.4 (021) 57899999 (021) 57899999",-6.239183,106.811417
DKI Jakarta,Kota Administrasi Jakarta Selatan,Kebayoran Baru,"ATM BNI Plaza Bapindo - Mandiri Tower - Jl. Jenderal Sudirman No.5 3, RT.5/RW.3",ATM BNI Plaza Bapindo - Mandiri Tower,"Jl. Jenderal Sudirman No.5 3, RT.5/RW.3","4,5 (2) ATM ATM · Mandiri Tower, Plaza Bapindo, Jl. Jenderal Sudirman No.5 3, RT.5/RW.3 Buka 24 jam Buka 24 jam Buka 24 jam · (021) 500046",-6.2241156,106.8078966
DKI Jakarta,Kota Administrasi Jakarta Selatan,Kebayoran Baru,"ATM BNI KLN PACIFIC PLACE - Jalan Jend Sudirman Kav 52-53, RT.5/RW.3",ATM BNI KLN PACIFIC PLACE,"Jalan Jend Sudirman Kav 52-53, RT.5/RW.3","5,0 (1) ATM ATM · Jalan Jend Sudirman Kav 52-53, RT.5/RW.3 (021) 57899999 (021) 57899999",-6.2245742,106.8099028
DKI Jakarta,Kota Administrasi Jakarta Selatan,Kebayoran Baru,ATM PT. Bank Negara Indonesia (Persero) Tbk - RT.3/RW.1,ATM PT. Bank Negara Indonesia (Persero) Tbk,RT.3/RW.1,"Tidak ada ulasan ATM ATM · Pasar Raya Seibu, JL Iskandarsyah, II/2 Blok M, RT.3/RW.1",-6.245126,106.803779
DKI Jakarta,Kota Administrasi Jakarta Selatan,Kebayoran Baru,"ATM BNI GRAND LUCKY SCBD - Jl. Gatot Subroto No.3, RT.5/RW.3",ATM BNI GRAND LUCKY SCBD,"Jl. Gatot Subroto No.3, RT.5/RW.3","Tidak ada ulasan Bank Bank · Jl. Gatot Subroto No.3, RT.5/RW.3 Buka 24 jam Buka 24 jam Buka 24 jam · (021) 57899999",-6.226626,106.80607
DKI Jakarta,Kota Administrasi Jakarta Selatan,Kebayoran Baru,"Bank BNI - Jl. Trunojoyo No.35 6, RT.6/RW.2",Bank BNI,"Jl. Trunojoyo No.35 6, RT.6/RW.2","4,7 (3) ATM ATM · Jl. Trunojoyo No.35 6, RT.6/RW.2 Tutup ⋅ Buka Sen pukul 08.00",-6.240963,106.8037046
DKI Jakarta,Kota Administrasi Jakarta Selatan,Kebayoran Baru,Atm Bni - RT.4/RW.2,Atm Bni,RT.4/RW.2,"Tidak ada ulasan ATM ATM · QQ5M+675, RT.4/RW.2",-6.2419768,106.7832349
DKI Jakarta,Kota Administrasi Jakarta Selatan,Kebayoran Baru,"Bank BNI Radio Dalam - Jl. Radio Dalam Raya No.24 1, RT.7/RW.4",Bank BNI Radio Dalam,"Jl. Radio Dalam Raya No.24 1, RT.7/RW.4","4,7 (105) ATM ATM ·   · Jl. Radio Dalam Raya No.24 1, RT.7/RW.4 Tutup ⋅ Buka Sen pukul 08.00 · (021) 7234371",-6.2520277,106.7912796
DKI Jakarta,Kota Administrasi Jakarta Selatan,Kebayoran Baru,"ATM PT. Bank Negara Indonesia (Persero) Tbk - Jl. Sultan Hasanudin No.42 2, RT.2/RW.1",ATM PT. Bank Negara Indonesia (Persero) Tbk,"Jl. Sultan Hasanudin No.42 2, RT.2/RW.1","Tidak ada ulasan ATM ATM · Jl. Sultan Hasanudin No.42 2, RT.2/RW.1",-6.2415166,106.8021195
DKI Jakarta,Kota Administrasi Jakarta Selatan,Kebayoran Baru,"Atm Bni Pondok Indah Arteri - Jl. Sultan Iskandar Muda No.25, RT.T.13/RW.2",Atm Bni Pondok Indah Arteri,"Jl. Sultan Iskandar Muda No.25, RT.T.13/RW.2","4,4 (24) Bank Bank · Jl. Sultan Iskandar Muda No.25, RT.T.13/RW.2 Tutup ⋅ Buka Sen pukul 08.00 · (021) 7227885",-6.2523669,106.7819506
DKI Jakarta,Kota Administrasi Jakarta Selatan,Kebayoran Baru,"ATM BNI Bangka Raya - Jl. Bangka Raya No.14 3, RT.14/RW.3",ATM BNI Bangka Raya,"Jl. Bangka Raya No.14 3, RT.14/RW.3","5,0 (1) ATM ATM · ATM BNI, No.40 A, Jl. Bangka Raya No.14 3, RT.14/RW.3 Buka 24 jam Buka 24 jam Buka 24 jam",-6.2460245,106.8156598
DKI Jakarta,Kota Administrasi Jakarta Selatan,Kebayoran Baru,"ATM BNI KLN BURSA EFEK INDONESIA - Jl. Jenderal Sudirman No.52-53, RT.5/RW.3",ATM BNI KLN BURSA EFEK INDONESIA,"Jl. Jenderal Sudirman No.52-53, RT.5/RW.3","5,0 (7) ATM ATM · Jl. Jenderal Sudirman No.52-53, RT.5/RW.3 Tutup ⋅ Buka Sen pukul 08.00 · (021) 57899999",-6.2254267,106.8096745
DKI Jakarta,Kota Administrasi Jakarta Selatan,Kebayoran Baru,"ATM BNI RANCH MARKET PD INDAH - Jalan Metro Pondok Indah (PIM 1 Lt 1), Kebayoran Lama, RT.1/RW.16",ATM BNI RANCH MARKET PD INDAH,"Jalan Metro Pondok Indah (PIM 1 Lt 1), Kebayoran Lama, RT.1/RW.16","Tidak ada ulasan ATM ATM · Jalan Metro Pondok Indah (PIM 1 Lt 1), Kebayoran Lama, RT.1/RW.16 (021) 57899999 (021) 57899999",-6.2653472,106.7844916
DKI Jakarta,Kota Administrasi Jakarta Selatan,Kebayoran Baru,"ATM BNI Lotte Mart Fatmawati - Jalan RS. Fatmawati, Gandaria Selatan, Cilandak, RT.8/RW.6",ATM BNI Lotte Mart Fatmawati,"Jalan RS. Fatmawati, Gandaria Selatan, Cilandak, RT.8/RW.6","4,0 (1) ATM ATM · Lotte Mart Fatmawati, Lt. Dasar, Komplek Golden Fatmawati No. 15, Jalan RS. Fatmawati, Gandaria Selatan, Cilandak, RT.8/RW.6 Buka ⋅ Tutup pukul 22.00 · (021) 1500046",-6.275374,106.7974939
DKI Jakarta,Kota Administrasi Jakarta Selatan,Kebayoran Baru,ATM BNI BNI SYARIAH KCP PANGLIMA POLIM - RT.1/RW.7,ATM BNI BNI SYARIAH KCP PANGLIMA POLIM,RT.1/RW.7,"4,4 (26) ATM ATM · RT.1/RW.7 Tutup ⋅ Buka Sen pukul 09.00 · (021) 57899999",-6.2504508,106.797697
DKI Jakarta,Kota Administrasi Jakarta Selatan,Kebayoran Baru,"ATM BNI - Jl. Ciputat Raya, RT.4/RW.10",ATM BNI,"Jl. Ciputat Raya, RT.4/RW.10","5,0 (1) ATM ATM · Jl. Ciputat Raya, RT.4/RW.10 Buka 24 jam Buka 24 jam Buka 24 jam · (021) 57899999",-6.2600392,106.776957
DKI Jakarta,Kota Administrasi Jakarta Selatan,Kebayoran Baru,"ATM BNI - Jl. Bangka Raya, RT.5/RW.5",ATM BNI,"Jl. Bangka Raya, RT.5/RW.5","3,5 (2) ATM ATM · Jl. Bangka Raya, RT.5/RW.5 Buka 24 jam Buka 24 jam Buka 24 jam · (021) 57899999",-6.2438856,106.8160715
DKI Jakarta,Kota Administrasi Jakarta Selatan,Kebayoran Baru,"ATM BNI NON TUNAI DPR RI - Jl. Gatot Subroto, RT.5/RW.3",ATM BNI NON TUNAI DPR RI,"Jl. Gatot Subroto, RT.5/RW.3","Tidak ada ulasan ATM ATM · Jl. Gatot Subroto, RT.5/RW.3 (021) 57899999 (021) 57899999",-6.226676,106.810463
DKI Jakarta,Kota Administrasi Jakarta Selatan,Kebayoran Baru,"ATM BNI GOLDEN FATMAWATI - Jl. RS. Fatmawati Raya, RT.3/RW.4",ATM BNI GOLDEN FATMAWATI,"Jl. RS. Fatmawati Raya, RT.3/RW.4","Tidak ada ulasan ATM ATM · Jl. RS. Fatmawati Raya, RT.3/RW.4 (021) 57899999 (021) 57899999",-6.2720162,106.7973759
DKI Jakarta,Kota Administrasi Jakarta Selatan,Kebayoran Baru,"Agence BNI Madagascar - Jl. RS. Fatmawati Raya No.29 1, RT.1/RW.5",Agence BNI Madagascar,"Jl. RS. Fatmawati Raya No.29 1, RT.1/RW.5","Tidak ada ulasan ATM ATM · Jl. RS. Fatmawati Raya No.29 1, RT.1/RW.5 (021) 7342152 (021) 7342152",-6.2570455,106.7966143
DKI Jakarta,Kota Administrasi Jakarta Selatan,Kebayoran Baru,"ATM BNI KLN PIM-2 - Jl. Metro Pondok Indah No.33 1, RT.1/RW.16",ATM BNI KLN PIM-2,"Jl. Metro Pondok Indah No.33 1, RT.1/RW.16","4,6 (28) ATM ATM ·   · Jl. Metro Pondok Indah No.33 1, RT.1/RW.16 Tutup ⋅ Buka Sab pukul 10.00 · (021) 57899999",-6.2657508,106.7830465
DKI Jakarta,Kota Administrasi Jakarta Selatan,Kebayoran Baru,"Bank BNI - Jl. Hang Lekir 2 No.28 9, RT.9/RW.6",Bank BNI,"Jl. Hang Lekir 2 No.28 9, RT.9/RW.6","4,3 (8) ATM ATM · Jl. Hang Lekir 2 No.28 9, RT.9/RW.6 Tutup ⋅ Buka Sen pukul 08.00 · (021) 29419819",-6.2326965,106.7938329
DKI Jakarta,Kota Administrasi Jakarta Selatan,Kebayoran Baru,"ATM BNI GALLERY ATM PACIFIC PLACE - Jl. Jenderal Sudirman, RT.5/RW.3",ATM BNI GALLERY ATM PACIFIC PLACE,"Jl. Jenderal Sudirman, RT.5/RW.3","Tidak ada ulasan ATM ATM · Jl. Jenderal Sudirman, RT.5/RW.3 (021) 57899999 (021) 57899999",-6.224529,106.810197
DKI Jakarta,Kota Administrasi Jakarta Selatan,Kebayoran Baru,"ATM BNI Kantor Pusat Jamsostek - Jl. Gatot Subroto, RT.8/RW.2",ATM BNI Kantor Pusat Jamsostek,"Jl. Gatot Subroto, RT.8/RW.2","4,0 (6) ATM ATM · Jl. Gatot Subroto, RT.8/RW.2 Buka 24 jam Buka 24 jam Buka 24 jam · (021) 57899999",-6.2260337,106.8179173
DKI Jakarta,Kota Administrasi Jakarta Selatan,Kebayoran Baru,"Bank BNI KCU Melawai Raya - Jl. Melawai Raya Jl. Iskandarsyah II No.1, RT.3/RW.5",Bank BNI KCU Melawai Raya,"Jl. Melawai Raya Jl. Iskandarsyah II No.1, RT.3/RW.5","4,0 (83) ATM ATM ·   · Jl. Melawai Raya Jl. Iskandarsyah II No.1, RT.3/RW.5 Tutup ⋅ Buka Sen pukul 08.00 · (021) 2700946",-6.245997,106.8036555
DKI Jakarta,Kota Administrasi Jakarta Selatan,Kebayoran Baru,"BNI Pondok Indah Mall-1 - Jl. Metro Pondok Indah Blok t492 No.kav IV/TA, RT.1/RW.16",BNI Pondok Indah Mall-1,"Jl. Metro Pondok Indah Blok t492 No.kav IV/TA, RT.1/RW.16","4,3 (56) ATM ATM ·   · Jl. Metro Pondok Indah Blok t492 No.kav IV/TA, RT.1/RW.16 Tutup ⋅ Buka Sen pukul 08.00 · (021) 75920749",-6.265434,106.7842023
DKI Jakarta,Kota Administrasi Jakarta Selatan,Kebayoran Baru,"BNI KCP Gandaria City - Jl. Sultan Iskandar Muda No.32 No.8 Lt, RT.10/RW.6",BNI KCP Gandaria City,"Jl. Sultan Iskandar Muda No.32 No.8 Lt, RT.10/RW.6","4,2 (19) ATM ATM · Gandaria 8 office tower, Jl. Sultan Iskandar Muda No.32 No.8 Lt, RT.10/RW.6 Tutup ⋅ Buka Sen pukul 08.00 · (021) 29036646",-6.2427068,106.7831575
DKI Jakarta,Kota Administrasi Jakarta Selatan,Kebayoran Baru,BNI Mayestik - Jl. Kyai Maja No.75-76,BNI Mayestik,Jl. Kyai Maja No.75-76,"4,0 (65) ATM ATM · Jl. Kyai Maja No.75-76 Tutup ⋅ Buka Sen pukul 09.00 · (021) 2700050",-6.2416889,106.7905316
DKI Jakarta,Kota Administrasi Jakarta Selatan,Kebayoran Baru,"ATM BNI KK MPRDPR - Jl. Gatot Subroto, RT.5/RW.3",ATM BNI KK MPRDPR,"Jl. Gatot Subroto, RT.5/RW.3","Tidak ada ulasan Bank Bank · Jl. Gatot Subroto, RT.5/RW.3 (021) 57899999 (021) 57899999",-6.226676,106.810463
DKI Jakarta,Kota Administrasi Jakarta Selatan,Kebayoran Baru,"Bank BNI Melawai Raya - Jl. Melawai Raya 4, RT.4/RW.6",Bank BNI Melawai Raya,"Jl. Melawai Raya 4, RT.4/RW.6","3,7 (21) Bank Bank ·   · Jl. Melawai Raya 4, RT.4/RW.6 Tutup ⋅ Buka Min pukul 08.00 · (021) 2702828",-6.245713,106.7962131
DKI Jakarta,Kota Administrasi Jakarta Selatan,Kebayoran Baru,"ATM BNI INDOMARET PATAL SENAYAN - Jl. Raya Kebayoran Lama, RT.5/RW.7",ATM BNI INDOMARET PATAL SENAYAN,"Jl. Raya Kebayoran Lama, RT.5/RW.7","5,0 (1) ATM ATM · Jl. Raya Kebayoran Lama, RT.5/RW.7 Buka ⋅ Tutup pukul 21.00 · (021) 57899999",-6.2185451,106.7951476
DKI Jakarta,Kota Administrasi Jakarta Selatan,Kebayoran Baru,ATM BNI NON TUNAI - RT.1/RW.3,ATM BNI NON TUNAI,RT.1/RW.3,"4,0 (1) ATM ATM · F2 #14, RT.1/RW.3 Buka 24 jam Buka 24 jam Buka 24 jam · (021) 57899999",-6.224454,106.8034216
DKI Jakarta,Kota Administrasi Jakarta Selatan,Kebayoran Baru,"ATM BNI GEDUNG KIMIA FARMA - Jl. Raya Kby. Lama No.50, RT.1/RW.1",ATM BNI GEDUNG KIMIA FARMA,"Jl. Raya Kby. Lama No.50, RT.1/RW.1","5,0 (1) ATM ATM · Jl. Raya Kby. Lama No.50, RT.1/RW.1 (021) 1500046 (021) 1500046",-6.2265464,106.7781495
DKI Jakarta,Kota Administrasi Jakarta Selatan,Kebayoran Baru,"ATM BNI KLN KEMANG - Jl. Kemang Raya No.47 11, RT.6/RW.2",ATM BNI KLN KEMANG,"Jl. Kemang Raya No.47 11, RT.6/RW.2","Tidak ada ulasan ATM ATM · Jl. Kemang Raya No.47 11, RT.6/RW.2 (021) 57899999 (021) 57899999",-6.2652424,106.816254
DKI Jakarta,Kota Administrasi Jakarta Selatan,Kebayoran Baru,"ATM BNI KLN PONDOK PINANG - Jl. Ciputat Raya No.16 8, RT.8/RW.2",ATM BNI KLN PONDOK PINANG,"Jl. Ciputat Raya No.16 8, RT.8/RW.2","2,5 (2) ATM ATM · Jl. Ciputat Raya No.16 8, RT.8/RW.2 Buka 24 jam Buka 24 jam Buka 24 jam · (021) 57899999",-6.2685136,106.7752377
DKI Jakarta,Kota Administrasi Jakarta Selatan,Kebayoran Baru,"ATM BNI HOTEL KARTIKA CHANDRA - Jl. Gatot Subroto No.8, RT.8/RW.2",ATM BNI HOTEL KARTIKA CHANDRA,"Jl. Gatot Subroto No.8, RT.8/RW.2","5,0 (2) ATM ATM · Jl. Gatot Subroto No.8, RT.8/RW.2 Buka 24 jam Buka 24 jam Buka 24 jam · (021) 57899999",-6.2271679,106.81857
DKI Jakarta,Kota Administrasi Jakarta Selatan,Kebayoran Baru,"BNI - Jalan Taman Duta Pondok Indah, RT.4/RW.14",BNI,"Jalan Taman Duta Pondok Indah, RT.4/RW.14","5,0 (1) ATM ATM · Jalan Taman Duta Pondok Indah, RT.4/RW.14 Buka 24 jam Buka 24 jam Buka 24 jam · (021) 500046",-6.2835902,106.7814566
DKI Jakarta,Kota Administrasi Jakarta Selatan,Kebayoran Baru,"ATM BNI KLN PIM-2 - Jalan Metro Pondok Indah No. 25, Pondok Indah Mall 2, RT.1/RW.16",ATM BNI KLN PIM-2,"Jalan Metro Pondok Indah No. 25, Pondok Indah Mall 2, RT.1/RW.16","Tidak ada ulasan ATM ATM · Jalan Metro Pondok Indah No. 25, Pondok Indah Mall 2, RT.1/RW.16 (021) 57899999 (021) 57899999",-6.2656031,106.7827535
DKI Jakarta,Kota Administrasi Jakarta Selatan,Kebayoran Baru,"ATM BNI - Jl. Pintu Satu Senayan No.1 1, RT.1/RW.3",ATM BNI,"Jl. Pintu Satu Senayan No.1 1, RT.1/RW.3","5,0 (2) ATM ATM · PPKGBK, Jl. Pintu Satu Senayan No.1 1, RT.1/RW.3 Buka ⋅ Tutup pukul 20.00 · (021) 57899999",-6.2220532,106.8001366
DKI Jakarta,Kota Administrasi Jakarta Selatan,Kebayoran Baru,"ATM BNI SPBU Tentara Pelajar - Jl. Tentara Pelajar No.6, RT.1/RW.12",ATM BNI SPBU Tentara Pelajar,"Jl. Tentara Pelajar No.6, RT.1/RW.12","3,0 (2) ATM ATM · Jl. Tentara Pelajar No.6, RT.1/RW.12 Buka 24 jam Buka 24 jam Buka 24 jam",-6.2214996,106.7906499
DKI Jakarta,Kota Administrasi Jakarta Selatan,Kebayoran Baru,"BNI KEMENTRIAN PU - Jl. Pattimura No. 20, Selong, Kebayoran Baru, RT.2/RW.1",BNI KEMENTRIAN PU,"Jl. Pattimura No. 20, Selong, Kebayoran Baru, RT.2/RW.1","4,8 (22) ATM ATM · Kementerian Pekerjaan Umum, Gedung Heritage Lt. Dasar, Jl. Pattimura No. 20, Selong, Kebayoran Baru, RT.2/RW.1 Tutup ⋅ Buka Sen pukul 08.00 · (021) 7207741",-6.2365328,106.8004266
DKI Jakarta,Kota Administrasi Jakarta Selatan,Kebayoran Baru,ATM BNI KLN Plaza Fx 2 - RT.1/RW.3,ATM BNI KLN Plaza Fx 2,RT.1/RW.3,"Tidak ada ulasan ATM ATM · QRG3+7H5, Fx Lifestyle X'Nter, JL Jenderal Sudirman, Pintu Satu Senayan, RT.1/RW.3 Buka ⋅ Tutup pukul 22.00",-6.2243507,106.8039726
DKI Jakarta,Kota Administrasi Jakarta Selatan,Kebayoran Baru,"BNI POLDA METRO JAYA - Jl. Jenderal Sudirman No.55, RT.5/RW.3",BNI POLDA METRO JAYA,"Jl. Jenderal Sudirman No.55, RT.5/RW.3","4,5 (6) ATM ATM · Jl. Jenderal Sudirman No.55, RT.5/RW.3",-6.2220185,106.8134101
DKI Jakarta,Kota Administrasi Jakarta Selatan,Kebayoran Baru,"ATM BNI ALFAMART BANGKA - Jl. Kemang Raya, RT.5/RW.5",ATM BNI ALFAMART BANGKA,"Jl. Kemang Raya, RT.5/RW.5","4,0 (1) ATM ATM · Jl. Kemang Raya, RT.5/RW.5 (021) 57899999 (021) 57899999",-6.2438444,106.8160563
DKI Jakarta,Kota Administrasi Jakarta Selatan,Kebayoran Baru,"ATM BNI KLN WISMA MULIA - Jl. Jend. Gatot Subroto, RT.5/RW.3",ATM BNI KLN WISMA MULIA,"Jl. Jend. Gatot Subroto, RT.5/RW.3","5,0 (1) Bank Bank · Jl. Jend. Gatot Subroto, RT.5/RW.3 (021) 57899999 (021) 57899999",-6.2282559,106.8103158
DKI Jakarta,Kota Administrasi Jakarta Selatan,Kebayoran Baru,"ATM BNI KOPERASI DARMA MANDIRI - Jl. Darma Putra Raya Jl. Komp. Kostrad No.Kel, RT.5/RW.1",ATM BNI KOPERASI DARMA MANDIRI,"Jl. Darma Putra Raya Jl. Komp. Kostrad No.Kel, RT.5/RW.1","Tidak ada ulasan ATM ATM · Jl. Darma Putra Raya Jl. Komp. Kostrad No.Kel, RT.5/RW.1 (021) 57899999 (021) 57899999",-6.2520026,106.7794911
DKI Jakarta,Kota Administrasi Jakarta Selatan,Kebayoran Baru,ATM BNI SOGO PLAZA SENAYAN - RT.1/RW.3,ATM BNI SOGO PLAZA SENAYAN,RT.1/RW.3,Tidak ada ulasan ATM ATM · RT.1/RW.3 Buka 24 jam Buka 24 jam Buka 24 jam · (021) 57899999,-6.225267,106.799312
DKI Jakarta,Kota Administrasi Jakarta Selatan,Kebayoran Baru,"ATM BNI ALFAMART PONDOK PINANG - Jl. Ciputat Raya No.1, RT.1/RW.4",ATM BNI ALFAMART PONDOK PINANG,"Jl. Ciputat Raya No.1, RT.1/RW.4","Tidak ada ulasan ATM ATM · Jl. Ciputat Raya No.1, RT.1/RW.4 Buka 24 jam Buka 24 jam Buka 24 jam · (021) 57899999",-6.2665903,106.7747428
DKI Jakarta,Kota Administrasi Jakarta Selatan,Kebayoran Baru,"Bank BNI KCP Kebayoran Lama - Jl. Raya Kby. Lama No.17A, RT.1/RW.11",Bank BNI KCP Kebayoran Lama,"Jl. Raya Kby. Lama No.17A, RT.1/RW.11","4,1 (36) Bank Bank · 1, Jl. Raya Kby. Lama No.17A, RT.1/RW.11 Tutup ⋅ Buka Sen pukul 08.00 · (021) 7235357",-6.2319246,106.780022
DKI Jakarta,Kota Administrasi Jakarta Selatan,Kebayoran Baru,"ATM BNI SESKOAL - Jl. Ciledug Raya, RT.1/RW.11",ATM BNI SESKOAL,"Jl. Ciledug Raya, RT.1/RW.11","5,0 (2) ATM ATM · Jl. Ciledug Raya, RT.1/RW.11 Buka 24 jam Buka 24 jam Buka 24 jam · (021) 57899999",-6.239427,106.772147
DKI Jakarta,Kota Administrasi Jakarta Selatan,Kebayoran Baru,"BNI Sekuritas - Jl. Sultan Hasanuddin Dalam, RT.3/RW.1",BNI Sekuritas,"Jl. Sultan Hasanuddin Dalam, RT.3/RW.1","Tidak ada ulasan Bank Bank · QQ4X+CFQ, Jl. Sultan Hasanuddin Dalam, RT.3/RW.1",-6.243911,106.7987338
DKI Jakarta,Kota Administrasi Jakarta Selatan,Kebayoran Baru,BNI - RT.6/RW.5,BNI,RT.6/RW.5,"Tidak ada ulasan ATM ATM · UTC Cipulir Mas Lantai No.1, RT.6/RW.5 Buka ⋅ Tutup pukul 21.00 · (021) 500046",-6.2373781,106.7655413
DKI Jakarta,Kota Administrasi Jakarta Selatan,Kebayoran Baru,"ATM BNI Non Tunai City Plaza - Jl. Gatot Subroto No.42, RT.3/RW.2",ATM BNI Non Tunai City Plaza,"Jl. Gatot Subroto No.42, RT.3/RW.2","Tidak ada ulasan ATM ATM · Jl. Gatot Subroto No.42, RT.3/RW.2 Buka 24 jam Buka 24 jam Buka 24 jam · (021) 57899999",-6.2349197,106.8228257
DKI Jakarta,Kota Administrasi Jakarta Selatan,Kebayoran Lama,"BNI - Jalan Taman Duta Pondok Indah, RT.4/RW.14",BNI,"Jalan Taman Duta Pondok Indah, RT.4/RW.14","5,0 (1) ATM ATM · Jalan Taman Duta Pondok Indah, RT.4/RW.14 Buka 24 jam Buka 24 jam Buka 24 jam · (021) 500046",-6.2835902,106.7814566
DKI Jakarta,Kota Administrasi Jakarta Selatan,Kebayoran Lama,"ATM BNI - Jalan Lebak Bulus Raya No.8, Kebayoran Lama, RT.10/RW.7",ATM BNI,"Jalan Lebak Bulus Raya No.8, Kebayoran Lama, RT.10/RW.7","2,0 (2) ATM ATM · Jalan Lebak Bulus Raya No.8, Kebayoran Lama, RT.10/RW.7 Buka 24 jam Buka 24 jam Buka 24 jam · (021) 57899999",-6.2882053,106.7762022
DKI Jakarta,Kota Administrasi Jakarta Selatan,Kebayoran Lama,"ATM BNI - Jl. Ciputat Raya, RT.4/RW.10",ATM BNI,"Jl. Ciputat Raya, RT.4/RW.10","5,0 (1) ATM ATM · Jl. Ciputat Raya, RT.4/RW.10 Buka 24 jam Buka 24 jam Buka 24 jam · (021) 57899999",-6.2600392,106.776957
DKI Jakarta,Kota Administrasi Jakarta Selatan,Kebayoran Lama,"ATM BNI - Jl. Raya Kby. Lama No.17A 1, RT.1/RW.11",ATM BNI,"Jl. Raya Kby. Lama No.17A 1, RT.1/RW.11","3,7 (3) ATM ATM · Jl. Raya Kby. Lama No.17A 1, RT.1/RW.11 Buka 24 jam Buka 24 jam Buka 24 jam",-6.2319769,106.7800277
DKI Jakarta,Kota Administrasi Jakarta Selatan,Kebayoran Lama,"ATM BNI - Jalan Kebayoran Lama, RT.2/RW.1, Kebayoran Lama Utara, Kebayoran Lama, RT.3/RW.1",ATM BNI,"Jalan Kebayoran Lama, RT.2/RW.1, Kebayoran Lama Utara, Kebayoran Lama, RT.3/RW.1","5,0 (1) ATM ATM · Pasar Kebayoran Lama, Jalan Kebayoran Lama, RT.2/RW.1, Kebayoran Lama Utara, Kebayoran Lama, RT.3/RW.1 Buka 24 jam Buka 24 jam Buka 24 jam · (021) 1500046",-6.236931,106.7808936
DKI Jakarta,Kota Administrasi Jakarta Selatan,Kebayoran Lama,"ATM BNI - Jl. Raya Kby. Lama No.86 1, RT.1/RW.11",ATM BNI,"Jl. Raya Kby. Lama No.86 1, RT.1/RW.11","4,5 (2) ATM ATM ·   · Jl. Raya Kby. Lama No.86 1, RT.1/RW.11 Buka 24 jam Buka 24 jam Buka 24 jam · (021) 500046",-6.232033,106.780041
DKI Jakarta,Kota Administrasi Jakarta Selatan,Kebayoran Lama,"BNI - Jl. Lebak Bulus Raya No.Z-24, RT.4/RW.5",BNI,"Jl. Lebak Bulus Raya No.Z-24, RT.4/RW.5","2,0 (1) ATM ATM · Jl. Lebak Bulus Raya No.Z-24, RT.4/RW.5 Buka ⋅ Tutup pukul 23.00 · (021) 500046",-6.2999412,106.7777803
DKI Jakarta,Kota Administrasi Jakarta Selatan,Kebayoran Lama,Bni - RT.1/RW.16,Bni,RT.1/RW.16,"5,0 (1) ATM ATM · PQJM+HWP, RT.1/RW.16 1 500 046 1 500 046",-6.2685474,106.7848178
DKI Jakarta,Kota Administrasi Jakarta Selatan,Kebayoran Lama,"ATM BNI KLN PONDOK PINANG - Jl. Ciputat Raya No.16 8, RT.8/RW.2",ATM BNI KLN PONDOK PINANG,"Jl. Ciputat Raya No.16 8, RT.8/RW.2","2,5 (2) ATM ATM · Jl. Ciputat Raya No.16 8, RT.8/RW.2 Buka 24 jam Buka 24 jam Buka 24 jam · (021) 57899999",-6.2685136,106.7752377
DKI Jakarta,Kota Administrasi Jakarta Selatan,Kebayoran Lama,BNI - RT.6/RW.5,BNI,RT.6/RW.5,"Tidak ada ulasan ATM ATM · UTC Cipulir Mas Lantai No.1, RT.6/RW.5 Buka ⋅ Tutup pukul 21.00 · (021) 500046",-6.2373781,106.7655413
DKI Jakarta,Kota Administrasi Jakarta Selatan,Kebayoran Lama,"ATM BNI KLN GANDARIA CITY - Jalan Sultan Iskandar Muda No.8, Mall Gandaria City, RT.10/RW.6",ATM BNI KLN GANDARIA CITY,"Jalan Sultan Iskandar Muda No.8, Mall Gandaria City, RT.10/RW.6","5,0 (1) ATM ATM · Jalan Sultan Iskandar Muda No.8, Mall Gandaria City, RT.10/RW.6 Buka 24 jam Buka 24 jam Buka 24 jam · (021) 57899999",-6.2439416,106.7841751
DKI Jakarta,Kota Administrasi Jakarta Selatan,Kebayoran Lama,"ATM BNI SESKOAL - Jl. Ciledug Raya, RT.1/RW.11",ATM BNI SESKOAL,"Jl. Ciledug Raya, RT.1/RW.11","5,0 (2) Bank Bank · Jl. Ciledug Raya, RT.1/RW.11 Buka 24 jam Buka 24 jam Buka 24 jam · (021) 57899999",-6.239427,106.772147
DKI Jakarta,Kota Administrasi Jakarta Selatan,Kebayoran Lama,"ATM BNI ALFAMART PONDOK PINANG - Jl. Ciputat Raya No.1, RT.1/RW.4",ATM BNI ALFAMART PONDOK PINANG,"Jl. Ciputat Raya No.1, RT.1/RW.4","Tidak ada ulasan ATM ATM · Jl. Ciputat Raya No.1, RT.1/RW.4 Buka 24 jam Buka 24 jam Buka 24 jam · (021) 57899999",-6.2665903,106.7747428
DKI Jakarta,Kota Administrasi Jakarta Selatan,Kebayoran Lama,"ATM BNI INDOMARET PATAL SENAYAN - Jl. Raya Kebayoran Lama, RT.5/RW.7",ATM BNI INDOMARET PATAL SENAYAN,"Jl. Raya Kebayoran Lama, RT.5/RW.7","5,0 (1) ATM ATM · Jl. Raya Kebayoran Lama, RT.5/RW.7 Buka ⋅ Tutup pukul 21.00 · (021) 57899999",-6.2185451,106.7951476
DKI Jakarta,Kota Administrasi Jakarta Selatan,Kebayoran Lama,"Atm Bni Pondok Indah Arteri - Jl. Sultan Iskandar Muda No.25, RT.T.13/RW.2",Atm Bni Pondok Indah Arteri,"Jl. Sultan Iskandar Muda No.25, RT.T.13/RW.2","4,4 (24) Bank Bank · Jl. Sultan Iskandar Muda No.25, RT.T.13/RW.2 Tutup ⋅ Buka Sen pukul 08.00 · (021) 7227885",-6.2523669,106.7819506
DKI Jakarta,Kota Administrasi Jakarta Selatan,Kebayoran Lama,"ATM BNI RM. TERAS GANDARIA - Jl. Duku Raya, RT.10/RW.6",ATM BNI RM. TERAS GANDARIA,"Jl. Duku Raya, RT.10/RW.6","Tidak ada ulasan Bank Bank · Jl. Duku Raya, RT.10/RW.6 Buka 24 jam Buka 24 jam Buka 24 jam · (021) 57899999",-6.2439416,106.7841751
DKI Jakarta,Kota Administrasi Jakarta Selatan,Kebayoran Lama,"ATM BNI - Jl. Metro Pondok Indah No.3 3, RT.3/RW.14",ATM BNI,"Jl. Metro Pondok Indah No.3 3, RT.3/RW.14","Tidak ada ulasan ATM ATM · Pd. Indah Plaza 2, Jl. Metro Pondok Indah No.3 3, RT.3/RW.14 (021) 500046 (021) 500046",-6.2855368,106.7806013
DKI Jakarta,Kota Administrasi Jakarta Selatan,Kebayoran Lama,"ATM BNI RS. SILOAM TB SIMATUPANG - Jl. Tol Tahi Bonar Simatupang, RT.10/RW.4",ATM BNI RS. SILOAM TB SIMATUPANG,"Jl. Tol Tahi Bonar Simatupang, RT.10/RW.4","5,0 (1) Bank Bank · Jl. Tol Tahi Bonar Simatupang, RT.10/RW.4 Buka 24 jam Buka 24 jam Buka 24 jam · (021) 57899999",-6.2922126,106.7843731
DKI Jakarta,Kota Administrasi Jakarta Selatan,Kebayoran Lama,"ATM BNI RSAB KARTINI - Jl. Ciledug Raya No.84, RT.13/RW.6",ATM BNI RSAB KARTINI,"Jl. Ciledug Raya No.84, RT.13/RW.6","4,0 (1) ATM ATM · Jl. Ciledug Raya No.84, RT.13/RW.6 Buka 24 jam Buka 24 jam Buka 24 jam · (021) 57899999",-6.238093,106.7688144
DKI Jakarta,Kota Administrasi Jakarta Selatan,Kebayoran Lama,Atm Bni - RT.4/RW.2,Atm Bni,RT.4/RW.2,"Tidak ada ulasan ATM ATM · QQ5M+675, RT.4/RW.2",-6.2419768,106.7832349
DKI Jakarta,Kota Administrasi Jakarta Selatan,Kebayoran Lama,"ATM BNI GEDUNG KIMIA FARMA - Jl. Raya Kby. Lama No.50, RT.1/RW.1",ATM BNI GEDUNG KIMIA FARMA,"Jl. Raya Kby. Lama No.50, RT.1/RW.1","5,0 (1) ATM ATM · Jl. Raya Kby. Lama No.50, RT.1/RW.1 (021) 1500046 (021) 1500046",-6.2265464,106.7781495
DKI Jakarta,Kota Administrasi Jakarta Selatan,Kebayoran Lama,"ATM BRI & BNI - Jl. Komp. Kostrad No.2, RT.1/RW.7",ATM BRI & BNI,"Jl. Komp. Kostrad No.2, RT.1/RW.7","5,0 (1) ATM ATM · JL. Darma Putra Raya, Jl. Komp. Kostrad No.2, RT.1/RW.7 Buka 24 jam Buka 24 jam Buka 24 jam",-6.2546648,106.7837326
DKI Jakarta,Kota Administrasi Jakarta Selatan,Kebayoran Lama,"ATM BNI SPBU Tentara Pelajar - Jl. Tentara Pelajar No.6, RT.1/RW.12",ATM BNI SPBU Tentara Pelajar,"Jl. Tentara Pelajar No.6, RT.1/RW.12","3,0 (2) ATM ATM · Jl. Tentara Pelajar No.6, RT.1/RW.12 Buka 24 jam Buka 24 jam Buka 24 jam",-6.2214996,106.7906499
DKI Jakarta,Kota Administrasi Jakarta Selatan,Kebayoran Lama,"ATM BNI RM Teras Gandaria - Jl. KH. Moh. Syafi'i Hadzami No.5 5, RT.5/RW.9",ATM BNI RM Teras Gandaria,"Jl. KH. Moh. Syafi'i Hadzami No.5 5, RT.5/RW.9","Tidak ada ulasan ATM ATM · Jl. KH. Moh. Syafi'i Hadzami No.5 5, RT.5/RW.9 Buka 24 jam Buka 24 jam Buka 24 jam",-6.2458393,106.7848533
DKI Jakarta,Kota Administrasi Jakarta Selatan,Kebayoran Lama,"BNI - Jalan Karang Tengah, RT.1/RW.3, Lebak Bulus, Cilandak, RT.13/RW.3",BNI,"Jalan Karang Tengah, RT.1/RW.3, Lebak Bulus, Cilandak, RT.13/RW.3","5,0 (1) ATM ATM · Jalan Karang Tengah, RT.1/RW.3, Lebak Bulus, Cilandak, RT.13/RW.3 Buka 24 jam Buka 24 jam Buka 24 jam · (021) 57899999",-6.3090742,106.7809041
DKI Jakarta,Kota Administrasi Jakarta Selatan,Kebayoran Lama,ATM BNI Alfamidi Panjang Cipulir - Jl. Panjang,ATM BNI Alfamidi Panjang Cipulir,Jl. Panjang,Tidak ada ulasan ATM ATM · Jl. Panjang Buka ⋅ Tutup pukul 22.00,-6.2355211,106.7720887
DKI Jakarta,Kota Administrasi Jakarta Selatan,Kebayoran Lama,"ATM BNI - Jl. Batan Jl. Grafika No.1 3, RT.1/RW.2",ATM BNI,"Jl. Batan Jl. Grafika No.1 3, RT.1/RW.2","4,0 (1) ATM ATM · Indomaret, Jl. Batan Jl. Grafika No.1 3, RT.1/RW.2 Buka 24 jam Buka 24 jam Buka 24 jam",-6.2920564,106.771715
DKI Jakarta,Kota Administrasi Jakarta Selatan,Kebayoran Lama,"Atm BNI Pondok Pinang - Jl. Ciputat Raya No.10, RW.2",Atm BNI Pondok Pinang,"Jl. Ciputat Raya No.10, RW.2","Tidak ada ulasan ATM ATM · Masjid Ni'matul Ittihad, Jl. Ciputat Raya No.10, RW.2",-6.2699564,106.7748918
DKI Jakarta,Kota Administrasi Jakarta Selatan,Kebayoran Lama,"ATM BNI RANCH MARKET PD INDAH - Jalan Metro Pondok Indah (PIM 1 Lt 1), Kebayoran Lama, RT.1/RW.16",ATM BNI RANCH MARKET PD INDAH,"Jalan Metro Pondok Indah (PIM 1 Lt 1), Kebayoran Lama, RT.1/RW.16","Tidak ada ulasan ATM ATM · Jalan Metro Pondok Indah (PIM 1 Lt 1), Kebayoran Lama, RT.1/RW.16 (021) 57899999 (021) 57899999",-6.2653472,106.7844916
DKI Jakarta,Kota Administrasi Jakarta Selatan,Kebayoran Lama,"ATM BNI - Jl. Radio Dalam Raya No.7, RT.7/RW.4",ATM BNI,"Jl. Radio Dalam Raya No.7, RT.7/RW.4","2,0 (1) ATM ATM · Jl. Radio Dalam Raya No.7, RT.7/RW.4 Buka 24 jam Buka 24 jam Buka 24 jam",-6.2521264,106.7912313
DKI Jakarta,Kota Administrasi Jakarta Selatan,Kebayoran Lama,"ATM BNI Non Tunai Pasar Mayestik - Jl. Kyai Maja No.75 76, RT.4/RW.8",ATM BNI Non Tunai Pasar Mayestik,"Jl. Kyai Maja No.75 76, RT.4/RW.8","4,3 (3) ATM ATM · Jl. Kyai Maja No.75 76, RT.4/RW.8 Buka 24 jam Buka 24 jam Buka 24 jam · (021) 57899999",-6.2412399,106.7911399
DKI Jakarta,Kota Administrasi Jakarta Selatan,Kebayoran Lama,"ATM BNI SPBU GANDARIA - Jl. Kapten Tendean No.1 1, RT.1/RW.9",ATM BNI SPBU GANDARIA,"Jl. Kapten Tendean No.1 1, RT.1/RW.9","3,0 (1) Bank Bank · Jl. Kapten Tendean No.1 1, RT.1/RW.9 Buka 24 jam Buka 24 jam Buka 24 jam",-6.2440709,106.7880336
DKI Jakarta,Kota Administrasi Jakarta Selatan,Kebayoran Lama,"ATM BNI - Jl. Ciledug Raya No.11a, RT.5/RW.5",ATM BNI,"Jl. Ciledug Raya No.11a, RT.5/RW.5","3,0 (1) ATM ATM · Jl. Ciledug Raya No.11a, RT.5/RW.5 (021) 500046 (021) 500046",-6.2376934,106.767842
DKI Jakarta,Kota Administrasi Jakarta Selatan,Kebayoran Lama,"ATM BNI - Jl. TB Simatupang, RT.1/RW.4",ATM BNI,"Jl. TB Simatupang, RT.1/RW.4","Tidak ada ulasan ATM ATM · Jl. TB Simatupang, RT.1/RW.4 Buka ⋅ Tutup pukul 21.00 · (021) 57899999",-6.2928132,106.793155
DKI Jakarta,Kota Administrasi Jakarta Selatan,Kebayoran Lama,"ATM BNI SPBU FATMAWATI - Jl. T.B. Simatupang, Cilandak, RT.1/RW.4",ATM BNI SPBU FATMAWATI,"Jl. T.B. Simatupang, Cilandak, RT.1/RW.4","5,0 (1) ATM ATM · Jl. T.B. Simatupang, Cilandak, RT.1/RW.4 (021) 1500046 (021) 1500046",-6.2949381,106.7946758
DKI Jakarta,Kota Administrasi Jakarta Selatan,Kebayoran Lama,"ATM BNI INDOMARET LEBAK BULUS - Jalan Batan I, Pasar Jumat, RT.5/RW.4",ATM BNI INDOMARET LEBAK BULUS,"Jalan Batan I, Pasar Jumat, RT.5/RW.4","5,0 (1) Bank Bank · Jalan Batan I, Pasar Jumat, RT.5/RW.4 (021) 57899999 (021) 57899999",-6.303112,106.779493
DKI Jakarta,Kota Administrasi Jakarta Selatan,Kebayoran Lama,"ATM BNI ALFA MIDI KBY. LAMA - Jl. Delman Raya, RT.7/RW.3",ATM BNI ALFA MIDI KBY. LAMA,"Jl. Delman Raya, RT.7/RW.3","3,0 (1) Bank Bank · Jl. Delman Raya, RT.7/RW.3 (021) 57899999 (021) 57899999",-6.2107707,106.78375
DKI Jakarta,Kota Administrasi Jakarta Selatan,Kebayoran Lama,"ATM BNI UNIV. DR. MOESTOPO - Jl. Raya Kebayoran Lama, RT.1/RW.3",ATM BNI UNIV. DR. MOESTOPO,"Jl. Raya Kebayoran Lama, RT.1/RW.3","5,0 (1) Bank Bank · Jl. Raya Kebayoran Lama, RT.1/RW.3 Buka 24 jam Buka 24 jam Buka 24 jam · (021) 57899999",-6.2290943,106.7962751
DKI Jakarta,Kota Administrasi Jakarta Selatan,Kebayoran Lama,"ATM BNI - Jl. R.A. Kartini Lantai G, RT.9/RW.7",ATM BNI,"Jl. R.A. Kartini Lantai G, RT.9/RW.7","Tidak ada ulasan ATM ATM · Mall Poins Square, Jl. R.A. Kartini Lantai G, RT.9/RW.7 Buka ⋅ Tutup pukul 21.00 · (021) 500046",-6.2897942,106.7781588
DKI Jakarta,Kota Administrasi Jakarta Selatan,Kebayoran Lama,"Bni - Jl. Lb. Sari, RT.1/RW.8",Bni,"Jl. Lb. Sari, RT.1/RW.8","Tidak ada ulasan Bank Bank · Jl. Lb. Sari, RT.1/RW.8 Buka 24 jam Buka 24 jam Buka 24 jam · 0823-7411-7712",-6.2431235,106.7791385
DKI Jakarta,Kota Administrasi Jakarta Selatan,Kebayoran Lama,"ATM BNI SPBU BINTARO KESEHATAN - Jl. Kesehatan Bawah I No.3, RT.3/RW.6",ATM BNI SPBU BINTARO KESEHATAN,"Jl. Kesehatan Bawah I No.3, RT.3/RW.6","3,3 (4) ATM ATM · Jl. Kesehatan Bawah I No.3, RT.3/RW.6 Buka 24 jam Buka 24 jam Buka 24 jam · (021) 57899999",-6.2705175,106.7600016
DKI Jakarta,Kota Administrasi Jakarta Selatan,Kebayoran Lama,"ATM BNI PST.PERTOKOAN RADIO DALAM - Jl. Hidup Baru No.1 10, RT.5/RW.4",ATM BNI PST.PERTOKOAN RADIO DALAM,"Jl. Hidup Baru No.1 10, RT.5/RW.4","4,0 (1) Bank Bank · Jl. Hidup Baru No.1 10, RT.5/RW.4 (021) 57899999 (021) 57899999",-6.2550786,106.7903612
DKI Jakarta,Kota Administrasi Jakarta Selatan,Kebayoran Lama,"ATM BNI KLN PIM 1 NONTUNAI - Jl. Metro Pondok Indah, RT.10/RW.15",ATM BNI KLN PIM 1 NONTUNAI,"Jl. Metro Pondok Indah, RT.10/RW.15","Tidak ada ulasan Bank Bank · Jl. Metro Pondok Indah, RT.10/RW.15 Tutup ⋅ Buka Sab pukul 10.00 · (021) 57899999",-6.2760041,106.7818041
DKI Jakarta,Kota Administrasi Jakarta Selatan,Kebayoran Lama,"ATM BNI INDOMARET JL. HJ. NAWI - Jl. H. Nawi, RT.7/RW.7",ATM BNI INDOMARET JL. HJ. NAWI,"Jl. H. Nawi, RT.7/RW.7","3,0 (3) ATM ATM · Jl. H. Nawi, RT.7/RW.7 Buka 24 jam Buka 24 jam Buka 24 jam · (021) 57899999",-6.2637121,106.7954533
DKI Jakarta,Kota Administrasi Jakarta Selatan,Kebayoran Lama,"ATM BNI GIANT POINT SQUARE - Jl. Lebak Bulus Raya, RT.9/RW.7",ATM BNI GIANT POINT SQUARE,"Jl. Lebak Bulus Raya, RT.9/RW.7","4,0 (2) Bank Bank · Jl. Lebak Bulus Raya, RT.9/RW.7 (021) 57899999 (021) 57899999",-6.2899439,106.7780086
DKI Jakarta,Kota Administrasi Jakarta Selatan,Kebayoran Lama,ATM BNI SPBU PONDOK INDAH - RT.1/RW.16,ATM BNI SPBU PONDOK INDAH,RT.1/RW.16,"2,5 (4) Bank Bank · RT.1/RW.16 Buka 24 jam Buka 24 jam Buka 24 jam · (021) 57899999",-6.2590872,106.781976
DKI Jakarta,Kota Administrasi Jakarta Selatan,Kebayoran Lama,"ATM BNI GIANT LEBAK BULUS - Jalan Lebak Lestari Raya No.9 7, RT.9/RW.7",ATM BNI GIANT LEBAK BULUS,"Jalan Lebak Lestari Raya No.9 7, RT.9/RW.7","4,0 (2) ATM ATM · Jalan Lebak Lestari Raya No.9 7, RT.9/RW.7 (021) 57899999 (021) 57899999",-6.2900942,106.7776942
DKI Jakarta,Kota Administrasi Jakarta Selatan,Kebayoran Lama,"ATM BNI - Jl. Permata Hijau Boulevard Barat No.4, RT.4/RW.12",ATM BNI,"Jl. Permata Hijau Boulevard Barat No.4, RT.4/RW.12","Tidak ada ulasan ATM ATM · Jl. Permata Hijau Boulevard Barat No.4, RT.4/RW.12 (021) 57899999 (021) 57899999",-6.2213713,106.7876773
